stop_id,stop_code,stop_name,stop_lat,stop_lon,zone_id,location_type,parent_station
20192,192,Beogradska arena /antifašističke borbe/,44.8116281045,20.4225743141,1,0,
20222,222,Konjarnik,44.7823610000,20.5105100000,1,0,
20237,237,Beogradska arena /španskih boraca/,44.8135957361,20.4182931785,1,0,
20291,291,Baštovanska,44.7563793582,20.4769530785,1,0,
20292,292,Baštovanska,44.7570328869,20.4772038810,1,0,
20331,331,Beogradska arena /španskih boraca/,44.8130001728,20.4183725914,1,0,
20371,371,Arhiv,44.8255414871,20.4129434669,1,0,
20372,372,Arhiv,44.8270963066,20.4120379473,1,0,
20373,373,Bulevar maršala Tolbuhina,44.8291143101,20.4116912896,1,0,
20374,374,Bulevar maršala Tolbuhina,44.8298295855,20.4111244878,1,0,
20387,387,Beogradska arena /antifašističke borbe/,44.8110830000,20.4226040000,1,0,
20391,391,Franše DEperea,44.7908361789,20.4682818516,1,0,
20395,395,Mostar,44.7978630000,20.4506391000,1,0,
20396,396,Mostar,44.7975243000,20.4506377000,1,0,
20397,397,Sava centar,44.8077083608,20.4312133981,1,0,
20398,398,Sava centar,44.8071934679,20.4310123055,1,0,
20399,399,Omladinskih brigada,44.8173618851,20.4101095209,1,0,
20400,400,Omladinskih brigada,44.8168683000,20.4099511000,1,0,
20401,401,Bulevar Zorana Đinđića,44.8202410000,20.4098120000,1,0,
20402,402,Bulevar Zorana Đinđića,44.8201620000,20.4093400000,1,0,
20403,403,GO Novi Beograd,44.8234476436,20.4126928717,1,0,
20404,404,GO Novi Beograd,44.8229760000,20.4118800000,1,0,
20405,405,Džona Kenedija,44.8341999716,20.4099694742,1,0,
20406,406,Džona Kenedija,44.8339783387,20.4097198784,1,0,
20407,407,Prve pruge - Retenzija,44.8368281582,20.4105595470,1,0,
20408,408,Poljoprivredni fakultet,44.8394536076,20.4129170730,1,0,
20409,409,22. Oktobra,44.8379084168,20.4112463994,1,0,
20478,478,Savski trg (Savska),44.8069100000,20.4554080000,1,0,
20480,480,Bulevar kralja Aleksandra,44.7839659319,20.5176662909,1,0,
20494,494,Mostar,44.7981847359,20.4489129159,1,0,
20495,495,Sajam,44.7964357486,20.4414598404,1,0,
20496,496,Sajam,44.7963526039,20.4421144469,1,0,
20503,503,Ada Ciganlija,44.7884938958,20.4200184945,1,0,
20636,636,Mirijevo 4,44.7859569832,20.5459931894,1,0,
20637,637,Mirijevo 4,44.7862780000,20.5456290000,1,0,
20696,696,SP Lasta,44.7718588515,20.5185539305,1,0,
20706,706,Palata pravde,44.8044242873,20.4529303729,1,0,
20725,725,Žarkovo,44.7594788800,20.4154967025,1,0,
20745,745,Pogon Kosmaj,44.7716990584,20.5179604494,1,0,
20771,771,dr Ivana Ribara,44.7981227294,20.3723284515,1,0,
20782,782,Blok 45,44.7929726212,20.3751949515,1,0,
20783,783,Blok 45,44.7928302595,20.3751126619,1,0,
20784,784,dr Ivana Ribara 1,44.7958106917,20.3729756711,1,0,
20785,785,dr Ivana Ribara 1,44.7967040708,20.3720502454,1,0,
20786,786,OŠ Branko Radičević,44.7996020533,20.3756588104,1,0,
20787,787,OŠ Branko Radičević,44.7997551055,20.3751192829,1,0,
20788,788,Nehruova,44.8011803434,20.3799878521,1,0,
20789,789,Nehruova,44.8014832069,20.3798299037,1,0,
20790,790,Gandijeva,44.8033620350,20.3888870650,1,0,
20791,791,Gandijeva,44.8033177814,20.3868937939,1,0,
20792,792,Blok 70,44.8040317924,20.3938664883,1,0,
20793,793,Blok 70,44.8043360655,20.3937226093,1,0,
20794,794,Omladinskih brigada,44.8043244777,20.3982555736,1,0,
20795,795,Omladinskih brigada,44.8046455213,20.3983138700,1,0,
20796,796,Tehnička škola Novi Beograd,44.8089743747,20.3997505693,1,0,
20797,797,Tehnička škola Novi Beograd,44.8081264807,20.3990918736,1,0,
20798,798,Erport siti,44.8117495048,20.4021013331,1,0,
20799,799,Erport siti,44.8111153397,20.4012241656,1,0,
20800,800,Milutina Milankovića,44.8161203327,20.4060811441,1,0,
20801,801,Milutina Milankovića,44.8160028899,20.4056146386,1,0,
20846,846,Trg oslobođenja,44.7870250000,20.4659370000,1,0,
20854,854,Crkva Sv. Vasilija Ostroškog,44.7623105462,20.4796286488,1,0,
20910,910,Trošarina,44.7612980000,20.4831720000,1,0,
20911,911,Železnik R,44.7421904627,20.3588764227,1,0,
20914,914,Žarkovo,44.7585613626,20.4151386503,1,0,
20925,925,Trg Slavija /Nemanjina/,44.8033579000,20.4644407000,1,0,
20932,932,Ostružnica 1,44.7336310000,20.3210220000,1,0,
20963,963,Ostružnica 2,44.7236335624,20.3145473730,1,0,
20964,964,Pećani,44.6965550000,20.3168420000,1,0,
21009,1009,Jablanička,44.7480222623,20.4118326859,1,0,
21010,1010,Jablanička,44.7496970167,20.4122598933,1,0,
21011,1011,Kneževac,44.7336838975,20.4195335282,1,0,
21012,1012,Kneževac,44.7351710565,20.4193981147,1,0,
21032,1032,Robni terminal,44.8168821840,20.2885073196,1,0,
21042,1042,Biodekor,44.8063953011,20.3522522644,1,0,
21082,1082,Robni terminal,44.8166712744,20.2881465460,1,0,
21112,1112,Blok 70A,44.7982360000,20.4002610000,1,0,
21113,1113,Blok 70A,44.7979787573,20.4001060933,1,0,
21114,1114,Jurija Gagarina,44.8017794388,20.3998266976,1,0,
21115,1115,Jurija Gagarina,44.8016556287,20.3996453963,1,0,
21122,1122,Železnička stanica Tošin bunar,44.8171856266,20.3950667308,1,0,
21123,1123,Železnička stanica Tošin bunar,44.8167820684,20.3952962551,1,0,
21124,1124,Stari aerodrom,44.8139993817,20.3927918369,1,0,
21126,1126,IMT,44.8124916088,20.3897331491,1,0,
21127,1127,IMT,44.8128519300,20.3913638100,1,0,
21128,1128,Gandijeva,44.8100762381,20.3814827111,1,0,
21135,1135,Crkva Sv. Georgija,44.8077132787,20.3756955080,1,0,
21136,1136,Crkva Sv. Georgija,44.8079895565,20.3770089362,1,0,
21137,1137,Dušana Vukasovića,44.8057095617,20.3707769387,1,0,
21138,1138,Dušana Vukasovića,44.8060751863,20.3723171589,1,0,
21139,1139,Surčinska,44.8040810000,20.3667970000,1,0,
21140,1140,Surčinska,44.8039392529,20.3670972332,1,0,
21141,1141,Nedeljka Gvozdenovića,44.8077111679,20.3597921894,1,0,
21142,1142,Nedeljka Gvozdenovića,44.8075539512,20.3602008761,1,0,
21143,1143,Ledine,44.8050942129,20.3490129448,1,0,
21144,1144,Blok 44,44.7970670000,20.3839640000,1,0,
21145,1145,Blok 44,44.7964154433,20.3841447067,1,0,
21146,1146,Dom zdravlja Blok 44,44.7991656485,20.3826764509,1,0,
21147,1147,Dom zdravlja Blok 44,44.7989535643,20.3825625337,1,0,
21148,1148,dr Ivana Ribara,44.7992071038,20.3703869773,1,0,
21149,1149,Naselje Dr Ivan Ribar,44.7997440638,20.3695740153,1,0,
21150,1150,Blok 61,44.8015862146,20.3683867792,1,0,
21151,1151,Blok 61,44.8031590000,20.3665382000,1,0,
21181,1181,Milutina Milankovića,44.8201223459,20.3961677491,1,0,
21194,1194,Gandijeva,44.8107349195,20.3835689092,1,0,
21219,1219,Durmitorska,44.8021285000,20.4510250000,1,0,
21273,1273,Petrovčić,44.7950870000,20.1354494000,1,0,
21438,1438,Put za Kaluđericu,44.7677170237,20.5603856460,1,0,
21439,1439,Put za Kaluđericu,44.7679138369,20.5604360362,1,0,
21454,1454,Zdravstvena st. Leštane i Vinča,44.7454995198,20.5986659644,1,0,
21455,1455,Zdravstvena st. Leštane i Vinča,44.7460574677,20.5972950184,1,0,
21456,1456,Boleč raskršće,44.7356846641,20.6115268969,1,0,
21457,1457,Boleč raskršće,44.7359539242,20.6111147509,1,0,
21458,1458,Hladnjača PKB,44.7219576347,20.6309509381,1,0,
21459,1459,Hladnjača PKB,44.7219609800,20.6317525650,1,0,
21466,1466,Put za Zaklopaču,44.6974350664,20.6691591412,1,0,
21467,1467,Put za Zaklopaču,44.6975702297,20.6692145227,1,0,
21478,1478,Šumadijska,44.6736039315,20.7162556411,2,0,
21479,1479,Šumadijska,44.6741856661,20.7156293361,2,0,
21496,1496,Begaljica,44.6323627156,20.6951099153,2,0,
21497,1497,Put za Zaklopaču,44.6974998961,20.6683072166,1,0,
21501,1501,Ulaz u Zaklopaču,44.6873882000,20.6632598000,1,0,
21502,1502,Ulaz u Zaklopaču,44.6877880000,20.6634010000,1,0,
21503,1503,4. jula,44.6851803600,20.6619906798,1,0,
21504,1504,4. jula,44.6849464433,20.6620400288,1,0,
21505,1505,Trafostanica,44.6803962462,20.6626712221,1,0,
21506,1506,Trafostanica,44.6801864963,20.6626014742,1,0,
21507,1507,Dom kulture,44.6761668859,20.6597594264,1,0,
21508,1508,Dom kulture,44.6764122000,20.6608992000,1,0,
21509,1509,Crkva Sv. Trojice,44.6755048707,20.6565055466,1,0,
21510,1510,Crkva Sv. Trojice,44.6754088609,20.6564876466,1,0,
21511,1511,Zaklopača,44.6756077879,20.6518453074,1,0,
21512,1512,Zaklopača,44.6754205586,20.6528207577,1,0,
21542,1542,Leštane /ulaz/,44.7284008180,20.5758465706,1,0,
21543,1543,Leštane /izlaz/,44.7280464540,20.5757940460,1,0,
21544,1544,Leštane,44.7304160280,20.5754569519,1,0,
21563,1563,Kefalonijska,44.7305015373,20.4832182822,1,0,
21564,1564,Prvomajska,44.7836975769,20.5211941601,1,0,
21579,1579,Pirandelova,44.7772104570,20.5406185644,1,0,
21580,1580,Pirandelova,44.7768123178,20.5391913509,1,0,
21587,1587,Željka Milivojevića,44.7591634664,20.5511318871,1,0,
21588,1588,Željka Milivojevića,44.7593123423,20.5511941282,1,0,
21589,1589,Radisava Ignjatovića,44.7569084322,20.5519529638,1,0,
21590,1590,Radisava Ignjatovića,44.7567161359,20.5522683110,1,0,
21591,1591,Kaluđerica /centar/,44.7532677391,20.5539592417,1,0,
21592,1592,Kaluđerica /centar/,44.7532306456,20.5540316823,1,0,
21598,1598,Voždovac,44.7608450000,20.4838780000,1,0,
21601,1601,Riste Stefanovića,44.7501952602,20.4793003821,1,0,
21602,1602,Riste Stefanovića,44.7499430000,20.4806350000,1,0,
21605,1605,Jajinci /Dom zdravlja/,44.7401990794,20.4861400706,1,0,
21606,1606,Jajinci /Dom zdravlja/,44.7411289017,20.4853992006,1,0,
21610,1610,Spomen park Jajinci,44.7295661532,20.4843156280,1,0,
21611,1611,Rakovica selo (spomen česma),44.7265098329,20.4950693067,1,0,
21612,1612,Rakovica selo (spomen česma),44.7264296865,20.4943901979,1,0,
21613,1613,Rakovica selo,44.7216028079,20.4982653730,1,0,
21614,1614,Rakovica selo,44.7219670000,20.4974470000,1,0,
21617,1617,Beli potok /Kumbara/,44.7107547411,20.5061164031,1,0,
21618,1618,Beli potok /Kumbara/,44.7108029000,20.5062134000,1,0,
21619,1619,Pošta,44.7011524561,20.5042190380,1,0,
21620,1620,Pošta,44.7017287742,20.5048889098,1,0,
21621,1621,Avala,44.6962591398,20.5018454387,1,0,
21622,1622,Avala,44.6966666000,20.5020376000,1,0,
21652,1652,Čukarica,44.7863781227,20.4144398007,1,0,
21653,1653,Čukarica,44.7863567758,20.4149325349,1,0,
21688,1688,Sremčica,44.6505509133,20.4040604037,1,0,
21689,1689,Sremčica,44.6506490000,20.4038430000,1,0,
21692,1692,Naselje Petlovo brdo,44.7234933898,20.4174741141,1,0,
21693,1693,Naselje Petlovo brdo,44.7241510022,20.4182285094,1,0,
21694,1694,Grmovac /ulaz/,44.8551200000,20.1676900000,1,0,
21696,1696,Grmovac /ulaz/,44.8555862000,20.1669857000,1,0,
21698,1698,Novo naselje /Rušanj/,44.6821746657,20.4287448098,1,0,
21725,1725,SRC "Surčin" /ulaz/,44.7880710000,20.2342550000,1,0,
21726,1726,Savski trg (Savska),44.8072210644,20.4552818515,1,0,
21754,1754,Tošin bunar,44.8220870000,20.3998623000,1,0,
21755,1755,Tošin bunar,44.8216055722,20.3996057681,1,0,
21756,1756,Ledine,44.8052416850,20.3485471724,1,0,
21757,1757,Ledine,44.8051322345,20.3486520066,1,0,
21758,1758,Vila Mara,44.8012845484,20.3355024479,1,0,
21759,1759,Vila Mara,44.8007151973,20.3342170638,1,0,
21760,1760,Vikend naselje,44.7992455125,20.3247244025,1,0,
21761,1761,Vikend naselje,44.7992384255,20.3252487693,1,0,
21762,1762,Malinjak,44.7984654608,20.3192242939,1,0,
21763,1763,Malinjak,44.7983811640,20.3195287068,1,0,
21764,1764,Galovica,44.7973700647,20.3119020761,1,0,
21765,1765,Galovica,44.7973786306,20.3126655577,1,0,
21766,1766,Orešac,44.7964334100,20.3052426786,1,0,
21767,1767,Orešac,44.7963921283,20.3057292190,1,0,
21768,1768,Surčin /ulaz/,44.7953502050,20.2976346436,1,0,
21769,1769,Surčin /ulaz/,44.7952253775,20.2977619687,1,0,
21770,1770,Crkva,44.7943782833,20.2906969191,1,0,
21771,1771,Crkva,44.7942900000,20.2909710000,1,0,
21772,1772,Marka Raba,44.7934982351,20.2846623098,1,0,
21773,1773,Marka Raba,44.7936327866,20.2864649834,1,0,
21774,1774,Skopljanska,44.7925621515,20.2782817399,1,0,
21775,1775,Skopljanska,44.7927077344,20.2801181314,1,0,
21777,1777,SRC Surčin,44.7880049000,20.2316729000,1,0,
21778,1778,Surčin /centar/,44.7909206342,20.2695860448,1,0,
21780,1780,Krušedolska,44.7893575697,20.2612543933,1,0,
21781,1781,Krušedolska,44.7894685608,20.2624413196,1,0,
21782,1782,Braće Nikolić,44.7833541105,20.2538862865,1,0,
21783,1783,Braće Nikolić,44.7838910550,20.2543526497,1,0,
21784,1784,Rimski kanal,44.7784019214,20.2456102797,1,0,
21785,1785,Rimski kanal,44.7788790023,20.2469289803,1,0,
21786,1786,Put za Jakovo,44.7760413198,20.2402968031,1,0,
21787,1787,Put za Jakovo,44.7763110361,20.2411403534,1,0,
21788,1788,Silosi,44.7701619530,20.2430481362,1,0,
21789,1789,Silosi,44.7701633303,20.2432056209,1,0,
21790,1790,Servisi,44.7617435000,20.2521794000,1,0,
21791,1791,Servisi,44.7625284000,20.2512924822,1,0,
21792,1792,Sremska,44.7597574000,20.2548410000,1,0,
21793,1793,Sremska,44.7595755500,20.2551976055,1,0,
21794,1794,Sestara Krstonošić,44.7560315000,20.2583146000,1,0,
21795,1795,Sestara Krstonošić,44.7568178966,20.2576814822,1,0,
21796,1796,MZ Jakovo,44.7537699852,20.2604617945,1,0,
21797,1797,MZ Jakovo,44.7543901933,20.2600132172,1,0,
21798,1798,Đorđa Radovića,44.7491138587,20.2647837110,1,0,
21799,1799,Đorđa Radovića,44.7495835000,20.2644703000,1,0,
21800,1800,Oslobođenja,44.7462159296,20.2654548663,1,0,
21801,1801,Oslobođenja,44.7461411728,20.2654587055,1,0,
21802,1802,Jakovo,44.7453687329,20.2705712092,1,0,
21803,1803,Braće Suzić,44.7977888849,20.2646888381,1,0,
21804,1804,Braće Suzić,44.7975035000,20.2654908000,1,0,
21805,1805,Surčin /izlaz/,44.8017243347,20.2578175288,1,0,
21806,1806,Surčin /izlaz/,44.8011906000,20.2585063000,1,0,
21807,1807,Surčinska petlja,44.8062200702,20.2507994534,1,0,
21808,1808,Surčinska petlja,44.8059379741,20.2510488142,1,0,
21809,1809,Industrijska zona Dobanovci,44.8114806032,20.2425709699,1,0,
21810,1810,Industrijska zona Dobanovci,44.8109536000,20.2435719000,1,0,
21811,1811,Naselje PIK,44.8169091902,20.2340539276,1,0,
21812,1812,Naselje PIK,44.8172427000,20.2333845000,1,0,
21813,1813,Bezdan,44.8198224103,20.2294752288,1,0,
21814,1814,Bezdan,44.8198851000,20.2292481000,1,0,
21815,1815,Stevana Jovanovića,44.8247237544,20.2252336356,1,0,
21816,1816,Stevana Jovanovića,44.8247499000,20.2250814000,1,0,
21817,1817,Dobanovci /centar/,44.8283407000,20.2224055000,1,0,
21818,1818,Dobanovci /centar/,44.8271472978,20.2231902264,1,0,
21819,1819,Žarka Jelića,44.8321282000,20.2194611000,1,0,
21820,1820,Žarka Jelića,44.8322017000,20.2192424000,1,0,
21821,1821,Slovački dom,44.8346888000,20.2174592000,1,0,
21822,1822,Slovački dom,44.8350416959,20.2171038209,1,0,
21823,1823,Fruškogorska,44.8375358664,20.2155763589,1,0,
21824,1824,Fruškogorska,44.8379315000,20.2151950000,1,0,
21825,1825,Dobanovci /ulaz/,44.8403119528,20.2139237442,1,0,
21826,1826,Dobanovci /ulaz/,44.8404372000,20.2136944000,1,0,
21827,1827,Partizanska 1,44.8699107587,20.2041813853,1,0,
21828,1828,Partizanska 1,44.8693760000,20.2040980000,1,0,
21829,1829,Ugrinovci /ulaz/,44.8714587393,20.1997521552,1,0,
21830,1830,Ugrinovci /ulaz/,44.8712161887,20.2002777288,1,0,
21831,1831,Beogradska,44.8735866354,20.1930714884,1,0,
21832,1832,Beogradska,44.8732760584,20.1937194822,1,0,
21833,1833,Ugrinovci /centar/,44.8756573856,20.1872591055,1,0,
21834,1834,Ugrinovci /centar/,44.8754116956,20.1876509669,1,0,
21835,1835,Ugrinovci,44.8780724394,20.1799718522,1,0,
21836,1836,Kej oslobođenja,44.8430187029,20.4151627521,1,0,
21837,1837,Bečmen naselje,44.7782803930,20.2196329178,1,0,
21838,1838,Bečmen naselje,44.7781146409,20.2201502699,1,0,
21839,1839,Maksin sokak,44.7792187817,20.2116688620,1,0,
21840,1840,Maksin sokak,44.7791728441,20.2113042135,1,0,
21841,1841,Bečmen /centar/,44.7807723557,20.2025249534,1,0,
21842,1842,Bečmen /centar/,44.7805514000,20.2034533000,1,0,
21843,1843,Bečmenskih ilegalaca,44.7825228000,20.1956083000,1,0,
21844,1844,Bečmenskih ilegalaca,44.7823504000,20.1957340000,1,0,
21845,1845,Bečmen ekonomija,44.7864270000,20.1858526000,1,0,
21846,1846,Bečmen ekonomija,44.7862456000,20.1859790000,1,0,
21847,1847,Petrovčić /ulaz/,44.7936791000,20.1511324000,1,0,
21848,1848,Petrovčić /ulaz/,44.7935652000,20.1517094000,1,0,
21849,1849,Petrovčić /centar/,44.7941452000,20.1446810000,1,0,
21850,1850,Petrovčić /centar/,44.7940870000,20.1442190000,1,0,
21851,1851,Petrovčić,44.7949267000,20.1355916000,1,0,
21852,1852,Bežanijska kosa,44.8270086849,20.3889496914,1,0,
21853,1853,Bežanijska kosa,44.8265920032,20.3886693871,1,0,
21854,1854,Zmaj,44.8314130000,20.3703450000,1,0,
21855,1855,Zmaj,44.8309350457,20.3717638233,1,0,
21856,1856,Grmeč,44.8325546763,20.3608069677,1,0,
21857,1857,Grmeč,44.8322033903,20.3621926024,1,0,
21858,1858,Ikarbus,44.8338526994,20.3473273049,1,0,
21859,1859,Ikarbus,44.8334011850,20.3484426295,1,0,
21860,1860,Naselje Radiofar,44.8342268048,20.3118807217,1,0,
21861,1861,Put za Soko salaš,44.8336992076,20.2867380890,1,0,
21862,1862,Put za Soko salaš,44.8333863318,20.2858114481,1,0,
21863,1863,Dobanovci /groblje/,44.8365312779,20.2360680387,1,0,
21864,1864,Partizanska,44.8319904395,20.2337551166,1,0,
21865,1865,Zemunska,44.8299040487,20.2290232166,1,0,
21866,1866,Dobanovci /centar/,44.8279258243,20.2237726423,1,0,
21897,1897,Kej oslobođenja,44.8436150000,20.4160380000,1,0,
21915,1915,SRC "Surčin" /ulaz/,44.7879712000,20.2360638000,1,0,
21948,1948,Surčin /mlin/,44.7872186000,20.2560536000,1,0,
21949,1949,Surčin /mlin/,44.7872353000,20.2562640399,1,0,
21953,1953,Novo naselje,44.7999896808,20.3296768319,1,0,
21954,1954,Novo naselje,44.7999960937,20.3305923110,1,0,
21955,1955,Surčin /centar/,44.7921203235,20.2694749190,1,0,
21960,1960,Umka-centar,44.6811913000,20.3053639767,1,0,
21965,1965,Surčin,44.7809477000,20.2495708000,1,0,
21966,1966,Surčin,44.7807836708,20.2504638174,1,0,
21967,1967,Ostružnica 1,44.7332904359,20.3209485865,1,0,
21980,1980,Železnik R,44.7427458112,20.3612285380,1,0,
21981,1981,Pećani,44.6975619476,20.3175865159,1,0,
21982,1982,Ostružnica 2,44.7224857346,20.3146615012,1,0,
21983,1983,SC Vizura,44.8208502922,20.3960486780,1,0,
21984,1984,Put za SRC,44.7809629137,20.2500619828,1,0,
21990,1990,Ulaz u Bečmen,44.7772919009,20.2265137841,1,0,
21991,1991,Ulaz u Bečmen,44.7772949044,20.2260620577,1,0,
22030,2030,Glumčevo brdo /Gorčinac/,44.6182522019,20.4660251227,2,0,
22031,2031,Glumčevo brdo /Gorčinac/,44.6182115687,20.4661217595,2,0,
22032,2032,Glumčevo brdo,44.6151454892,20.4548922096,2,0,
22033,2033,Šumareva kuća,44.6803471425,20.5182395006,1,0,
22034,2034,Šumareva kuća,44.6803547100,20.5181402422,1,0,
22052,2052,Jakovo čelik,44.7449595094,20.2534381687,1,0,
22053,2053,Jakovo čelik,44.7456973574,20.2540162062,1,0,
22054,2054,Boljevci /zapis/,44.7330793684,20.2463858362,1,0,
22055,2055,Boljevci /zapis/,44.7343090000,20.2477010000,1,0,
22056,2056,Šest topola,44.7274259836,20.2410443521,1,0,
22057,2057,Šest topola,44.7280636481,20.2418443055,1,0,
22058,2058,Ribarska,44.7214350000,20.2322690000,1,0,
22059,2059,Ribarska,44.7213310000,20.2320090000,1,0,
22060,2060,Relje Oparušića,44.7215950000,20.2249350000,1,0,
22061,2061,Relje Oparušića,44.7216387021,20.2237685129,1,0,
22062,2062,Boljevci /centar/,44.7224420000,20.2177000000,1,0,
22063,2063,Boljevci /centar/,44.7225173000,20.2162547000,1,0,
22064,2064,Boljevci /izlaz/,44.7241223000,20.2087304000,1,0,
22065,2065,Boljevci /izlaz/,44.7240778000,20.2085975000,1,0,
22066,2066,Živača ribnjak,44.7337610000,20.1938117000,1,0,
22067,2067,Živača ribnjak,44.7335529000,20.1940854000,1,0,
22068,2068,Živača /izlaz/,44.7322928093,20.1696308675,1,0,
22069,2069,Živača /izlaz/,44.7327559109,20.1703152264,1,0,
22070,2070,Bojčinska šuma,44.7268457000,20.1641088000,1,0,
22071,2071,Bojčinska šuma,44.7266119000,20.1641182000,1,0,
22072,2072,Progar /ulaz/,44.7206151000,20.1603353000,1,0,
22073,2073,Progar /ulaz/,44.7205231000,20.1604475000,1,0,
22074,2074,Progar /centar/,44.7148347000,20.1611485000,1,0,
22075,2075,Surčin /centar/,44.7910981227,20.2711747399,1,0,
22084,2084,Vikend naselje,44.7367842466,20.1850683411,1,0,
22085,2085,Vikend naselje,44.7368230000,20.1845491000,1,0,
22088,2088,Zmaj Ognjenog Vuka,44.7930050000,20.1556597000,1,0,
22089,2089,Zmaj Ognjenog Vuka,44.7932174000,20.1550464000,1,0,
22103,2103,Boleč /pumpa/,44.7417530344,20.6067611098,1,0,
22104,2104,Slovačko groblje,44.7227390522,20.2366332767,1,0,
22105,2105,Slovačko groblje,44.7232779046,20.2373522325,1,0,
22132,2132,Prilivak,44.7510424911,20.2565720331,1,0,
22133,2133,Prilivak,44.7507015975,20.2565964252,1,0,
22134,2134,Boleč /pumpa/,44.7429013878,20.6058698687,1,0,
22139,2139,Druga nova,44.7318630000,20.1983382000,1,0,
22140,2140,Druga nova,44.7315161000,20.1989516000,1,0,
22142,2142,MZ Jakovo,44.7539590000,20.2596959000,1,0,
22181,2181,Mesara,44.7763554361,20.2334812644,1,0,
22182,2182,Mesara,44.7761562800,20.2343279055,1,0,
22232,2232,Stovarište,44.7384703372,20.2514985338,1,0,
22233,2233,Stovarište,44.7388982379,20.2520822153,1,0,
22245,2245,Glumčevo brdo 1,44.6178107796,20.4611055981,2,0,
22246,2246,Glumčevo brdo 1,44.6175764105,20.4611836485,2,0,
22251,2251,Dobanovačka petlja,44.8486490000,20.2086630000,1,0,
22252,2252,Dobanovačka petlja,44.8488347755,20.2083751092,1,0,
22253,2253,Naselje okrajak,44.8528346265,20.2061332675,1,0,
22254,2254,Naselje okrajak,44.8524520000,20.2061440000,1,0,
22263,2263,Dobanovci /groblje/,44.8373103060,20.2363625374,1,0,
22264,2264,Partizanska,44.8311383292,20.2321095939,1,0,
22265,2265,Zemunska,44.8297332220,20.2283387086,1,0,
22290,2290,Biodekor,44.8066450491,20.3535116487,1,0,
22301,2301,Grmovac /25.nova/,44.8553920000,20.1471800000,1,0,
22331,2331,Lipovački put,44.6298189724,20.4668648889,2,0,
22332,2332,Lipovački put,44.6300135000,20.4665274000,2,0,
22333,2333,Timočki put,44.6348440000,20.4619366000,2,0,
22334,2334,Timočki put,44.6343278669,20.4623894169,2,0,
22335,2335,Drenjak,44.6382863000,20.4572709000,2,0,
22336,2336,Drenjak,44.6385864000,20.4568214000,2,0,
22337,2337,Lipovački put 4 deo,44.6443817000,20.4534241000,2,0,
22338,2338,Lipovački put 4 deo,44.6440593000,20.4534285000,2,0,
22339,2339,Stara Lipovica,44.6444662543,20.4458291733,2,0,
22340,2340,Stara Lipovica,44.6444120000,20.4459810000,2,0,
22341,2341,Prvomajska,44.6469419111,20.4364867322,2,0,
22342,2342,Prvomajska,44.6468403000,20.4366690000,2,0,
22343,2343,Trebež,44.6488240000,20.4307690000,2,0,
22354,2354,Progar /centar/,44.7149226000,20.1607143000,1,0,
22355,2355,12. avgusta,44.7164845000,20.1558243000,1,0,
22356,2356,12. avgusta,44.7157402000,20.1564755000,1,0,
22357,2357,Progar,44.7182410000,20.1496910000,1,0,
22361,2361,Zelengora,44.6895344286,20.3116457883,1,0,
22367,2367,Zelengora,44.6898371355,20.3120146190,1,0,
22391,2391,Put za Zuce,44.6805435000,20.5330076000,1,0,
22392,2392,Put za Zuce,44.6807149295,20.5330449343,1,0,
22393,2393,Kapija Šumadije,44.6702339297,20.5419339020,1,0,
22394,2394,Kapija Šumadije,44.6704960080,20.5421027541,1,0,
22397,2397,Raskrsnica-Vrčin,44.6626104903,20.5434468399,1,0,
22398,2398,Raskrsnica-Vrčin,44.6629450000,20.5433660000,1,0,
22399,2399,Rasadnik,44.6550008907,20.5502242129,1,0,
22400,2400,Rasadnik,44.6562210000,20.5498560000,1,0,
22401,2401,Prnjavor /ulaz/,44.6476297965,20.5537560742,1,0,
22402,2402,Prnjavor /ulaz/,44.6469400000,20.5538490000,1,0,
22403,2403,Prnjavor /škola/,44.6323294775,20.5542169511,1,0,
22404,2404,Prnjavor /škola/,44.6322866650,20.5543541093,1,0,
22405,2405,Trešnja,44.6205622320,20.5552176934,1,0,
22406,2406,Trešnja,44.6208640000,20.5555330000,1,0,
22407,2407,Avalski cvet,44.6149248972,20.5563823675,1,0,
22408,2408,Avalski cvet,44.6149907899,20.5563195258,1,0,
22409,2409,Trešnja /okretnica/,44.6084945049,20.5557731564,1,0,
22411,2411,Trebež,44.6490387000,20.4305189000,2,0,
22425,2425,Srednji Prnjavor,44.6412518112,20.5517920368,1,0,
22426,2426,Srednji Prnjavor,44.6411748726,20.5518268153,1,0,
22437,2437,Omladinskih brigada,44.8052914495,20.3994442676,1,0,
22464,2464,Trešnja /Koviona/,44.5969672431,20.5675839067,2,0,
22465,2465,Partizanska 2,44.8607524249,20.2049129178,1,0,
22466,2466,Partizanska 2,44.8600081519,20.2048502730,1,0,
22481,2481,Preka kaldrma,44.8059477753,20.1009130349,1,0,
22487,2487,Grmovac /7. nova/,44.8518400000,20.1678900000,1,0,
22488,2488,Grmovac,44.8555518000,20.1620328000,1,0,
22489,2489,Grmovac /13. nova/,44.8516500000,20.1603000000,1,0,
22490,2490,Grmovac /crkva/,44.8555163000,20.1571608000,1,0,
22496,2496,Palata pravde,44.8049980000,20.4538660000,1,0,
22498,2498,Durmitorska,44.8022766000,20.4515637000,1,0,
22518,2518,Ralja /trafo/,44.5699405727,20.5707090675,2,0,
22529,2529,Bečmen /zabran/,44.7884501000,20.1770376000,1,0,
22530,2530,Bečmen /zabran/,44.7880535000,20.1782412000,1,0,
22531,2531,Šumsko gazdinstvo,44.7910833000,20.1649393000,1,0,
22532,2532,Šumsko gazdinstvo,44.7906873000,20.1661653000,1,0,
22535,2535,Trešnja (škola),44.6087310000,20.5561330000,1,0,
22536,2536,Trešnja /Koviona/,44.5964800000,20.5679450000,2,0,
22538,2538,SC Mladost,44.8028167129,20.3405428860,1,0,
22539,2539,SC Mladost,44.8030789677,20.3418952600,1,0,
22547,2547,13. Oktobra,44.5843125921,20.5648153644,2,0,
22548,2548,13. oktobra,44.5859600000,20.5654500000,2,0,
22549,2549,Livnica,44.5771557303,20.5653216317,2,0,
22550,2550,Livnica,44.5771562902,20.5658022916,2,0,
22551,2551,Ralja /centar/,44.5738414640,20.5583253056,2,0,
22552,2552,Ralja /centar/,44.5739050000,20.5584860000,2,0,
22553,2553,Naselje Radiofar,44.8344857291,20.3100023902,1,0,
22566,2566,Ralja /trafo/,44.5701542676,20.5701160932,2,0,
22567,2567,Ralja /Drumine/,44.5605860996,20.5813047141,2,0,
22568,2568,Ralja /Drumine/,44.5619000000,20.5795500000,2,0,
22607,2607,Brđanska,44.6231940000,20.4686080000,2,0,
22613,2613,Nenadovac,44.6096683000,20.4304600000,2,0,
22614,2614,Taborište,44.6009100000,20.4306100000,2,0,
22615,2615,Glumčevo brdo 2,44.6048100000,20.4339900000,2,0,
22616,2616,Glumčevo brdo 3,44.6085866000,20.4401900000,2,0,
22617,2617,Stevančevića kraj,44.6115383000,20.4445283000,2,0,
22618,2618,Glumčevo brdo /škola/,44.6139200000,20.4471633000,2,0,
22628,2628,Boljevci (ribolovački klub),44.7261870000,20.2029350000,1,0,
22629,2629,Boljevci (ribolovački klub),44.7258094000,20.2038424000,1,0,
22649,2649,Vinogradska (ulaz),44.8011798873,20.3616509511,1,0,
22650,2650,Vinogradska (ulaz),44.8011493506,20.3619626025,1,0,
22651,2651,MZ Ledine,44.7980110000,20.3496920000,1,0,
22652,2652,MZ Ledine,44.7981520000,20.3508530000,1,0,
22653,2653,Vodeničarska,44.7961990000,20.3399140000,1,0,
22654,2654,Vodeničarska,44.7959960000,20.3390440000,1,0,
22655,2655,GO Surčin (ulaz),44.7949250000,20.3312930000,1,0,
22656,2656,GO Surčin (ulaz),44.7947780000,20.3304510000,1,0,
22657,2657,MZ Novi Surčin,44.7945760000,20.3240020000,1,0,
22658,2658,MZ Novi Surčin,44.7944900000,20.3247490000,1,0,
22659,2659,Kanal Galovica,44.7946170000,20.3157970000,1,0,
22660,2660,Kanal Galovica,44.7946030000,20.3165680000,1,0,
22661,2661,Silosi,44.7932140000,20.3056990000,1,0,
22662,2662,Silosi,44.7932430000,20.3060280000,1,0,
22663,2663,Surčin naselje (ulaz),44.7914066888,20.2938004035,1,0,
22664,2664,Surčin naselje (ulaz),44.7914790000,20.2942660000,1,0,
22665,2665,Ritska ulica,44.7895620000,20.2864070000,1,0,
22666,2666,Ritska ulica,44.7896330000,20.2875880000,1,0,
22667,2667,Dragomira Momčilovića,44.7891760000,20.2781760000,1,0,
22668,2668,Dragomira Momčilovića,44.7892310000,20.2796510000,1,0,
22669,2669,Surčin (centar),44.7904490000,20.2703560000,1,0,
22673,2673,OŠ Jovan Sterija Popović,44.8071640000,20.3767520000,1,0,
22694,2694,Taborište,44.6014400000,20.4311800000,2,0,
22697,2697,Srednji kraj,44.5911400000,20.4287300000,2,0,
22698,2698,Srednji kraj,44.5919200000,20.4288200000,2,0,
22699,2699,Karaula,44.5889560000,20.4287250000,2,0,
22700,2700,Vinogradska (Surčin naselje),44.7927642965,20.2989866472,1,0,
22701,2701,Vinogradska (Surčin naselje),44.7927700000,20.2995500000,1,0,
22710,2710,Umka - centar,44.6785037329,20.3033613276,1,0,
22711,2711,Rucka 1,44.6757219074,20.3024213411,1,0,
22712,2712,Rucka 1,44.6755701702,20.3024889529,1,0,
22713,2713,Rucka 2,44.6715509537,20.3047513411,1,0,
22714,2714,Rucka 2,44.6714400000,20.3047100000,1,0,
22715,2715,Rucka 3,44.6644970000,20.3059950000,1,0,
22716,2716,Rucka 3,44.6642800000,20.3060400000,1,0,
22717,2717,Rucka 4,44.6611100000,20.3097800000,1,0,
22718,2718,Rucka 4,44.6609700000,20.3098600000,1,0,
22719,2719,Rucka /Okretnica/,44.6559320589,20.3151132486,1,0,
22733,2733,Đurđevdan,44.6749700000,20.5390300000,1,0,
22734,2734,Đurđevdan,44.6742800000,20.5395500000,1,0,
22735,2735,JAT Tehnika,44.8137097090,20.2914581368,1,0,
22736,2736,JAT Tehnika,44.8117320000,20.2939020000,1,0,
22750,2750,Grmovac (20.nova),44.8554500000,20.1531600000,1,0,
22751,2751,Grmovac /19. nova/,44.8516000000,20.1539400000,1,0,
22757,2757,Novo naselje (Rušanj),44.6828048408,20.4276828699,1,0,
22767,2767,Vinogradska (Plandište),44.8000090000,20.3561827841,1,0,
22768,2768,Vinogradska (Plandište),44.8002210000,20.3568740000,1,0,
22778,2778,Ravan (ulaz),44.7252600000,20.5768330000,1,0,
22779,2779,Ravan (ulaz),44.7259550000,20.5766370000,1,0,
22780,2780,Kremenje,44.7220250000,20.5786770000,1,0,
22781,2781,Kremenje,44.7221103361,20.5788108457,1,0,
22782,2782,Leštane (Ravan),44.7195400000,20.5830800000,1,0,
22790,2790,Rucka (okretnica),44.6558676613,20.3151644068,2,0,
22807,2807,Zaklopača (Ćelije),44.6794064850,20.6484096442,1,0,
22808,2808,Zaklopača (Ćelije),44.6783429795,20.6487934110,1,0,
22809,2809,Janković kraj,44.6791436091,20.6280473472,1,0,
22810,2810,Janković kraj,44.6790487021,20.6280769737,1,0,
22811,2811,17. januara,44.6786162114,20.6218959767,1,0,
22812,2812,17. januara,44.6786710000,20.6224370000,1,0,
22813,2813,Vrčin gornji kraj,44.6756460171,20.6154736448,1,0,
22814,2814,Vrčin gornji kraj,44.6756980615,20.6154907745,1,0,
22815,2815,Vrčin - Nadvožnjak,44.6748386644,20.6023883375,1,0,
22816,2816,Vrčin - Nadvožnjak,44.6747710000,20.6020850000,1,0,
22817,2817,Vrčin (Ivo Lola Ribar),44.6732259082,20.5990162423,1,0,
22818,2818,Vrčin,44.6716000000,20.5959950000,1,0,
22823,2823,Lipovica (policija),44.6369330000,20.4118330000,1,0,
22824,2824,Lipovica (policija),44.6369989984,20.4120359362,1,0,
22850,2850,Jakovo (ulaz),44.7643410000,20.2485940233,1,0,
22851,2851,Jakovo (ulaz),44.7646871434,20.2483481399,1,0,
22869,2869,Pumpa,44.8498810000,20.1880220000,1,0,
22870,2870,Pumpa,44.8497260000,20.1882990000,1,0,
22871,2871,Živača,44.7349490000,20.1732040000,1,0,
22872,2872,Živača,44.7351530000,20.1736680000,1,0,
22901,2901,Bečmen (izlaz),44.7843930000,20.1909280000,1,0,
22902,2902,Bečmen (izlaz),44.7840540000,20.1914130000,1,0,
22914,2914,Tranšped,44.7038740000,20.5762320000,1,0,
22975,2975,29. novembra,44.6457930000,20.4271520000,2,0,
22976,2976,29. novembra,44.6460230000,20.4274150000,2,0,
22977,2977,Trebež (okretnica),44.6423780000,20.4287870000,2,0,
22998,2998,Novobeogradskih graditelja,44.7969860000,20.3445800000,1,0,
22999,2999,Novobeogradskih graditelja,44.7969880000,20.3454230000,1,0,
23039,3039,Put za SRC,44.7812199079,20.2503810374,1,0,
23104,3104,Savski park,44.8061443321,20.4512799153,1,0,
23105,3105,Savski park,44.8076270000,20.4516400000,1,0,
23106,3106,Kula Beograd,44.8029900000,20.4480560000,1,0,
23107,3107,Kula Beograd,44.8032554064,20.4490914871,1,0,
23108,3108,TC Galerija,44.8013342023,20.4455594749,1,0,
23109,3109,TC Galerija,44.8016209952,20.4463813123,1,0,
23110,3110,Beograd na vodi,44.8013300000,20.4439900000,1,0,
23111,3111,Beograd na vodi,44.8011200000,20.4444300000,1,0,
23118,3118,Jakovička SRC ,44.7864810000,20.2324260000,1,0,
23119,3119,Park Ključ,44.7819770000,20.2355870000,1,0,
23120,3120,Don Kihotova,44.7827080000,20.2407840000,1,0,
23121,3121,Žička,44.7832660000,20.2444890000,1,0,
23124,3124,Brzačka,44.6370400000,20.4378800000,2,0,
23125,3125,Brzačka,44.6370860000,20.4379460000,2,0,
23127,3127,Savski most,44.8102364531,20.4529292129,1,0,
23142,3142,Savski most,44.8098300000,20.4521700000,1,0,
23170,3170,20. Oktobra,44.7739550000,20.5359030000,1,0,
23171,3171,20. Oktobra,44.7740262773,20.5360394810,1,0,
23172,3172,Braće Milić,44.7701800000,20.5365400000,1,0,
23173,3173,Braće Milić,44.7700886535,20.5366768221,1,0,
23174,3174,Beogradska,44.7635100000,20.5396700000,1,0,
23175,3175,Beogradska,44.7634500000,20.5398660000,1,0,
23176,3176,Živka Davidovića,44.7612600000,20.5428400000,1,0,
23177,3177,Živka Davidovića,44.7617656599,20.5423085129,1,0,
23178,3178,Groblje Kaluđerica,44.7601100000,20.5466800000,1,0,
23179,3179,Groblje Kaluđerica,44.7602900000,20.5463700000,1,0,
23180,3180,Svetislava Ristića,44.7488300000,20.5591400000,1,0,
23181,3181,Svetislava Ristića,44.7489800000,20.5590100000,1,0,
23182,3182,Trafo stanica,44.7445600000,20.5643500000,1,0,
23183,3183,Trafo stanica,44.7447800000,20.5642300000,1,0,
23184,3184,Novo groblje - Kaluđerica,44.7394000000,20.5704000000,1,0,
23185,3185,Novo groblje - Kaluđerica,44.7393600000,20.5705900000,1,0,
23186,3186,Bore Stankovića,44.7368100000,20.5730800000,1,0,
23187,3187,Bore Stankovića,44.7370800000,20.5729000000,1,0,
23188,3188,Oplenačka,44.7342000000,20.5739600000,1,0,
23189,3189,Oplenačka,44.7336400000,20.5741900000,1,0,
23190,3190,Leštane centar,44.7309300000,20.5753100000,1,0,
23205,3205,Grmovac /24. Nova/,44.8515700000,20.1484300000,1,0,
23220,3220,Grobljanska,44.8175300000,20.2355700000,1,0,
23221,3221,Grobljanska,44.8173900000,20.2353600000,1,0,
23222,3222,Groblje,44.8246600000,20.2377200000,1,0,
23223,3223,Groblje,44.8244400000,20.2375500000,1,0,
23224,3224,Anđelka Čobanovića,44.8279100000,20.2384700000,1,0,
23225,3225,Anđelka Čobanovića,44.8275000000,20.2382100000,1,0,
23226,3226,Beogradska,44.8313500000,20.2391400000,1,0,
23227,3227,Beogradska,44.8312700000,20.2391700000,1,0,
23228,3228,Pertizanska,44.8314577458,20.2347034037,1,0,
23736,3736,Palata pravde 1,44.8031124369,20.4513022566,1,0,
23739,3739,Palata pravde 1,44.8037515129,20.4507097104,1,0,
23980,3980,Parking garaža,44.8184624514,20.2877478022,1,0,
24096,4096,Ušće - Jakšići,44.6331864814,19.9995214888,2,0,
24097,4097,Ušće - Voćnjak,44.6346173519,19.9891575234,2,0,
24098,4098,Ušće - kafana,44.6401110000,19.9880790000,2,0,
25509,5509,Zvečka poljica,44.6389770000,20.1730540000,2,0,
25510,5510,Cveja Puškara,44.6364580000,20.1821120000,2,0,
27001,7001,Babe - raskrsnica,44.5381960000,20.5432490000,2,0,
27002,7002,Krtinska - Centar,44.6755118561,20.1365776877,2,0,
27003,7003,Krtinska - Centar,44.6755050000,20.1364400000,2,0,
27004,7004,Babe - Duboko,44.5576920000,20.5438870000,2,0,
27005,7005,Babe - Duboko,44.5585203675,20.5455620938,2,0,
27006,7006,Babe - Selo,44.5296635224,20.5268107447,2,0,
27007,7007,Babe - Selo,44.5296733000,20.5272333000,2,0,
27008,7008,Babe - Raskrsnica,44.5366683000,20.5427283000,2,0,
27009,7009,Babe - Raskrsnica,44.5380348777,20.5431997943,2,0,
27010,7010,Baćevac R Ibarska,44.6108219114,20.3598259779,2,0,
27011,7011,Babe - Raskrsnica,44.5363850000,20.5429300000,2,0,
27012,7012,Bakčina (vodenica),44.4969440000,20.6225880000,2,0,
27013,7013,Bakčina (vodenica),44.4969520000,20.6223740000,2,0,
27014,7014,Bakčina - Prodavnica,44.4967020903,20.6154993638,2,0,
27015,7015,Bakčina - Prodavnica,44.4966993889,20.6152640233,2,0,
27016,7016,Ropočevo,44.5253450000,20.5632318019,2,0,
27017,7017,Bakčina - Ulaz,44.4948459951,20.6107703111,2,0,
27018,7018,Bakčina - Ulaz,44.4949097795,20.6104746411,2,0,
27019,7019,Bakčine (okretnica),44.4989497326,20.6271584165,2,0,
27020,7020,Bakčine (Okretnica),44.4990180032,20.6269142509,2,0,
27021,7021,Zvečka - Lipa,44.6320464030,20.1662832671,2,0,
27022,7022,Zvečka - Lipa,44.6320180913,20.1663640288,2,0,
27023,7023,Obrenovac - 14.oktobar,44.6536840366,20.1824801221,2,0,
27024,7024,Obrenovac - 14.oktobar,44.6535682530,20.1828995190,2,0,
27025,7025,Aminac,44.5303412637,20.5611696184,2,0,
27026,7026,Aminac,44.5299320778,20.5608056796,2,0,
27027,7027,Aćimovići,44.4986266061,20.6355192736,2,0,
27028,7028,Aćimovići,44.4987560000,20.6345260000,2,0,
27029,7029,Robna kuća,44.5198783954,20.5751640340,2,0,
27030,7030,Vikend naselje,44.4795340165,20.5293248890,2,0,
27031,7031,Vikend naselje,44.4795011440,20.5295788681,2,0,
27032,7032,Babe (groblje),44.5357302694,20.5376724516,2,0,
27033,7033,Babe (groblje),44.5357570000,20.5379540000,2,0,
27034,7034,Vikend naselje,44.5803800000,20.4306250000,2,0,
27035,7035,Vikend naselje,44.5804685000,20.4306428000,2,0,
27036,7036,Dom zdravlja,44.5206674792,20.5805087396,2,0,
27037,7037,Dom zdravlja ,44.5202000478,20.5774322777,2,0,
27038,7038,Livnica,44.5767650000,20.5649580000,2,0,
27039,7039,Groblje (Parcani),44.5631406366,20.5183734203,2,0,
27040,7040,Groblje (Parcani),44.5631926300,20.5184478688,2,0,
27041,7041,Naselje Samar,44.6531867127,20.2946342712,2,0,
27042,7042,Naselje Samar,44.6527261919,20.2945687558,2,0,
27043,7043,Barajevo (Prokića kraj),44.5822966772,20.4055914029,2,0,
27044,7044,Put za Srednju školu,44.5868800000,20.4074900000,2,0,
27045,7045,Drlupa (škola),44.4540910000,20.4944240000,2,0,
27046,7046,Drlupa (škola),44.4543792990,20.4945038687,2,0,
27047,7047,Barič (Ambulanta),44.6546863000,20.2594398000,2,0,
27048,7048,Drlupa (Vlastimira Vesića),44.4608371743,20.4952818220,2,0,
27049,7049,Drlupa (Vlastimira Vesića),44.4609559572,20.4954308221,2,0,
27050,7050,Donji kraj,44.4956659957,20.6030090380,2,0,
27051,7051,Donji kraj,44.4957333000,20.6030133000,2,0,
27052,7052,Autokomanda,44.7908214473,20.4673792804,1,0,
27053,7053,Kruševica,44.3491770000,20.3993130000,2,0,
27054,7054,Dučina (prof. Milorada Milinkovića),44.4859326916,20.4875072712,2,0,
27055,7055,Dučina (prof. Milorada Milinkovića),44.4858373890,20.4889382417,2,0,
27056,7056,Drlupa I,44.4661659583,20.4957509822,2,0,
27057,7057,Drlupa I,44.4658500995,20.4958605976,2,0,
27058,7058,Veterinarska stanica,44.5248700000,20.5756100000,2,0,
27059,7059,Drlupa raskrsnica,44.4783366017,20.5055376099,2,0,
27060,7060,Drlupa raskrsnica,44.4783771035,20.5057433429,2,0,
27061,7061,Drlupa raskrsnica,44.4784455932,20.5054317552,2,0,
27062,7062,Groblje,44.5273549856,20.5750858601,2,0,
27063,7063,Groblje,44.5273678985,20.5749205176,2,0,
27064,7064,Crveni krst,44.5225241037,20.5750040516,2,0,
27065,7065,Drlupa - Okretnica,44.4509914141,20.4948799307,2,0,
27067,7067,Drumine,44.5618600843,20.5796179237,2,0,
27068,7068,Drumine,44.5617441655,20.5795744116,2,0,
27069,7069,Dučina - Ulaz,44.4863609541,20.4735775601,2,0,
27070,7070,Dučina - Ulaz,44.4862969162,20.4737207811,2,0,
27071,7071,Dučina - Centar,44.4848372838,20.4960081393,2,0,
27072,7072,Dučina - Centar,44.4846835209,20.4962630668,2,0,
27073,7073,Most,44.5332113855,20.5711286185,2,0,
27074,7074,Most,44.5333360000,20.5708010000,2,0,
27075,7075,Ropočevo venac,44.5349524716,20.5725544110,2,0,
27076,7076,Ropočevo venac,44.5348650000,20.5725250000,2,0,
27077,7077,Slavkovića put,44.5386180000,20.5711400000,2,0,
27078,7078,Slavkovića put,44.5385530000,20.5710900000,2,0,
27079,7079,Živanovići,44.5113062313,20.5783891491,2,0,
27080,7080,Živanovići,44.5113165653,20.5785297577,2,0,
27081,7081,Zoroljin (Raskrsnica Sibnice i Slatine),44.4861208328,20.4636356123,2,0,
27082,7082,Zoroljin (Raskrsnica Sibnice i Slatine),44.4859933000,20.4630650000,2,0,
27083,7083,Jaranovića ćuprija,44.4292098402,20.5189140822,2,0,
27084,7084,Jaranovića ćuprija,44.4294565804,20.5191491399,2,0,
27085,7085,Nemenikuće - Jekića kuće,44.5020841245,20.5598370846,2,0,
27086,7086,Nemenikuće - Jekića kuće,44.5020723479,20.5599688307,2,0,
27087,7087,Zoroljin (Raskrsnica Sibnice i Slatine),44.4864519472,20.4631466301,2,0,
27088,7088,Zeoke,44.4040950000,20.3290640000,2,0,
27089,7089,Zeoke,44.4041500000,20.3292180000,2,0,
27091,7091,Staro selo - Mlekara,44.5078883000,20.4966417000,2,0,
27092,7092,Staro selo - Mlekara,44.5078166587,20.4966803589,2,0,
27093,7093,Sopot AS,44.5224189307,20.5769587026,2,0,
27094,7094,Sopot AS,44.5224470877,20.5771854729,2,0,
27095,7095,Katići - Mladenovac,44.5002261361,20.7702536589,2,0,
27096,7096,Katići - Mladenovac,44.5001808650,20.7702952276,2,0,
27097,7097,Svetlo polje (ulaz),44.5213092417,20.5835888049,2,0,
27098,7098,Svetlo polje (ulaz),44.5212832266,20.5832100000,2,0,
27099,7099,Svetlo polje (izlaz),44.5217736649,20.5894968221,2,0,
27100,7100,Svetlo polje (izlaz),44.5219200000,20.5889600000,2,0,
27101,7101,Radojevići  ,44.5216513144,20.5936768515,2,0,
27102,7102,Radojevići  ,44.5217500000,20.5934500000,2,0,
27103,7103,Senja ,44.5239489647,20.6024380761,2,0,
27104,7104,Senja  ,44.5240400000,20.6027900000,2,0,
27105,7105,Veterinarska stanica,44.5247400000,20.5758000000,2,0,
27106,7106,Mišići,44.4718926215,20.5330593981,2,0,
27107,7107,Mišići,44.4720237320,20.5336963466,2,0,
27108,7108,Trifunovića kuća,44.5448960000,20.5709400000,2,0,
27109,7109,Trifunovića kuća,44.5446660000,20.5710410000,2,0,
27110,7110,Orovac trafo,44.5567810000,20.5676810000,2,0,
27111,7111,Orovac trafo,44.5567510000,20.5677510000,2,0,
27112,7112,Pavlovići,44.5629830000,20.5636250000,2,0,
27113,7113,Pavlovići,44.5629330000,20.5636610000,2,0,
27114,7114,Morak,44.5211194017,20.5283001221,2,0,
27115,7115,Morak,44.5211955115,20.5281556656,2,0,
27116,7116,Moračka kapija,44.5208532481,20.5141211135,2,0,
27117,7117,Moračka kapija,44.5200017000,20.5158250000,2,0,
27118,7118,Nemenikuće - Naselje,44.5073342184,20.5680280263,2,0,
27119,7119,Nemenikuće - Naselje,44.5072219559,20.5680447374,2,0,
27120,7120,Nemenikuće - Škola,44.4962633000,20.5641450000,2,0,
27121,7121,Nemenikuće - Škola,44.4964300000,20.5640667000,2,0,
27122,7122,Nemenikuće (Centar),44.4939847695,20.5922450294,2,0,
27123,7123,Nemenikuće (Centar),44.4940483000,20.5923317000,2,0,
27124,7124,Krtinska (Trnjaci),44.6895290451,20.1317059865,2,0,
27126,7126,Kragujevački put,44.5666000000,20.5743700000,2,0,
27127,7127,Nikolići - Mladenovac,44.3532617000,20.7617164000,2,0,
27128,7128,Ralja (groblje),44.5650200000,20.5656500000,2,0,
27129,7129,Save Kovačevića,44.5645500000,20.5619000000,2,0,
27130,7130,Groblje "Đurinci",44.5271240400,20.6267561521,2,0,
27131,7131,Petkovića kraj,44.5289198768,20.6242901472,2,0,
27132,7132,Karaula,44.5001965911,20.6434434867,2,0,
27133,7133,Karaula,44.5001351550,20.6434608697,2,0,
27134,7134,Šumčeva,44.5272903610,20.6177574638,2,0,
27135,7135,Đurinci,44.5235100000,20.6140600000,2,0,
27137,7137,Nemenikuće - prodavnica,44.4911920943,20.5639253645,2,0,
27141,7141,Nikolići - Mladenovac,44.3532104494,20.7618137491,2,0,
27142,7142,Nemenikuće - prodavnica,44.4907417322,20.5637404957,2,0,
27143,7143,Janića kuće,44.5394400000,20.5595400000,2,0,
27144,7144,Žuto brdo  ,44.5362000000,20.5587000000,2,0,
27145,7145,Babe - Novičići,44.5234865345,20.5380398926,2,0,
27147,7147,Ostojići,44.4779171812,20.5137306123,2,0,
27148,7148,Ostojići,44.4778412929,20.5137711080,2,0,
27149,7149,Ćirića kraj ,44.5221100000,20.6222800000,2,0,
27151,7151,Đurinci (škola),44.5244200000,20.6254600000,2,0,
27153,7153,Mahala,44.5255776490,20.6315750147,2,0,
27154,7154,Mahala ,44.5257346235,20.6315150147,2,0,
27155,7155,Parcani (Braće Jovanović),44.5650742022,20.5208123031,2,0,
27156,7156,Parcani (Braće Jovanović),44.5655300000,20.5213000000,2,0,
27159,7159,Parcani - Dom,44.5674038379,20.5258073036,2,0,
27160,7160,Parcani - Dom,44.5676234076,20.5263161399,2,0,
27161,7161,Đurinci – žel. pruga,44.5224050000,20.6155830000,2,0,
27163,7163,Parcani - Most,44.5728344786,20.5413926528,2,0,
27164,7164,Parcani - Most,44.5727995150,20.5418762767,2,0,
27165,7165,Generala Ljubiše Veličkovića,44.5902800000,20.4098700000,2,0,
27166,7166,Prokića kraj (R),44.5940821089,20.4131114290,2,0,
27167,7167,Parcani - Raskrsnica,44.5693607324,20.5329070221,2,0,
27168,7168,Parcani - Raskrsnica,44.5692990892,20.5329276528,2,0,
27171,7171,Njegoševa,44.5242500000,20.5682600000,2,0,
27172,7172,Paunovići,44.5044769583,20.5804373395,2,0,
27173,7173,Paunovići,44.5045200000,20.5804767000,2,0,
27174,7174,Ralja (Vojvođanska),44.5644365000,20.5575390000,2,0,
27175,7175,Ralja (Vojvođanska),44.5643132818,20.5579404810,2,0,
27176,7176,Dučina spomenik - Okretnica,44.4927016101,20.5084186239,2,0,
27177,7177,Dučina spomenik - Okretnica,44.4927216000,20.5083166000,2,0,
27178,7178,Pijaca,44.5262315288,20.5839646356,2,0,
27179,7179,Pijaca,44.5261950712,20.5826934497,2,0,
27182,7182,Ralja - Železnička stanica.,44.5677809109,20.5600343938,2,0,
27183,7183,Ralja - Železnička stanica.,44.5674890000,20.5601070000,2,0,
27184,7184,Ralja /Robna kuća/,44.5722328036,20.5615302712,2,0,
27185,7185,Ralja /Robna kuća/,44.5720580000,20.5616410000,2,0,
27188,7188,Đurinci - okretnica,44.5201360592,20.6346782798,2,0,
27189,7189,Krtinska (Trnjaci),44.6897274315,20.1312298902,2,0,
27190,7190,Guncati (R),44.6178300000,20.4096740000,2,0,
27193,7193,Reonski put,44.4417598950,20.5206008895,2,0,
27194,7194,Reonski put,44.4417183000,20.5207817000,2,0,
27195,7195,Kandića ćuprija,44.4485075596,20.5162015742,2,0,
27196,7196,Kandića ćuprija,44.4485783989,20.5162301546,2,0,
27197,7197,Rogača - Most,44.4675906014,20.5277314767,2,0,
27198,7198,Rogača - Most,44.4676128137,20.5278399865,2,0,
27199,7199,Prokića kraj (R),44.5939400000,20.4129100000,2,0,
27200,7200,Rogača (preki put),44.4668089350,20.5150303031,2,0,
27201,7201,Rogača - Okretnica,44.4611936409,20.5204143356,2,0,
27202,7202,Rogača - Okretnica,44.4612277995,20.5203685595,2,0,
27203,7203,Rogača (Mala ćuprija),44.4244513228,20.5175723160,2,0,
27204,7204,Rogača (Mala ćuprija),44.4244860398,20.5176283386,2,0,
27205,7205,Kandića kuće,44.4554810039,20.5182085798,2,0,
27206,7206,Kandića kuće,44.4553037104,20.5180942418,2,0,
27208,7208,Ropočevo,44.5252498341,20.5631836687,2,0,
27209,7209,Jaranovići,44.4763924683,20.5449383375,2,0,
27210,7210,Sarići,44.4780382762,20.5543811080,2,0,
27211,7211,Sarići,44.4779754293,20.5545542509,2,0,
27212,7212,Jaranovići,44.4765699756,20.5457424429,2,0,
27215,7215,Sibnica - Okretnica,44.4624832862,20.4556094104,2,0,
27216,7216,Sibnica - Okretnica,44.4624961999,20.4554889375,2,0,
27217,7217,Sibnica - Izlaz,44.4564150000,20.4579750000,2,0,
27218,7218,Sibnica - Izlaz,44.4573612731,20.4575657196,2,0,
27219,7219,Sibnica - Groblje,44.4535371226,20.4580713264,2,0,
27220,7220,Sibnica - Groblje,44.4536829127,20.4572893374,2,0,
27221,7221,Sibnica - Spomenik,44.4740814682,20.4495103589,2,0,
27222,7222,Sibnica - Spomenik,44.4736110756,20.4494846153,2,0,
27223,7223,Sibnica - Ulaz,44.4773619608,20.4558119974,2,0,
27224,7224,Sibnica - Ulaz,44.4774516299,20.4561921663,2,0,
27225,7225,Slatina - Škola,44.4936707284,20.4519962516,2,0,
27226,7226,Slatina - Škola,44.4933615137,20.4512642914,2,0,
27227,7227,Sopot - Izlaz,44.5147896110,20.5698183295,2,0,
27228,7228,Sopot - Izlaz,44.5147053605,20.5700592510,2,0,
27229,7229,Opština Sopot,44.5197543269,20.5752119626,2,0,
27230,7230,Opština (Sopot),44.5189048382,20.5765733909,2,0,
27231,7231,Slatina - Spomenik,44.4904691196,20.4439296725,2,0,
27232,7232,Slatina - Spomenik,44.4903782191,20.4439062553,2,0,
27233,7233,Generala Ljubiše Veličkovića,44.5901000000,20.4095500000,2,0,
27234,7234,Put za Srednju školu,44.5867800000,20.4073500000,2,0,
27247,7247,Sutjeska II,44.4659375580,20.6675299073,2,0,
27248,7248,Sutjeska II,44.4662483990,20.6675327785,2,0,
27249,7249,Slatina (izlaz),44.4946050383,20.4244414577,2,0,
27250,7250,Slatina (izlaz),44.4944685204,20.4243920994,2,0,
27251,7251,Slatina - Trafo,44.4896596794,20.4346925253,2,0,
27252,7252,Slatina - Trafo,44.4897498430,20.4345259675,2,0,
27256,7256,Tresije - Raskrsnica,44.4850296716,20.5598719178,2,0,
27257,7257,Tresije - Raskrsnica,44.4849762271,20.5608041644,2,0,
27263,7263,Arapovac - Bunar,44.4496651032,20.3758771049,2,0,
27264,7264,Arapovac - Bunar,44.4497367000,20.3759617000,2,0,
27265,7265,Arapovac - Dom,44.4559857222,20.3833450356,2,0,
27266,7266,Arapovac - Dom,44.4560530265,20.3834634644,2,0,
27267,7267,Arapovac - Mar. kuća,44.4556961819,20.3766464190,2,0,
27268,7268,Arapovac - Mar. kuća,44.4557462089,20.3765279123,2,0,
27269,7269,Arapovac - Panj,44.4442820202,20.3817254663,2,0,
27270,7270,Arapovac - Panj,44.4442891493,20.3819064804,2,0,
27271,7271,Arapovac - Prodavnica,44.4551293661,20.3725471196,2,0,
27272,7272,Arapovac - Prodavnica,44.4551374535,20.3727126620,2,0,
27273,7273,Arapovac - Raskrsnica,44.4551795561,20.3882103589,2,0,
27274,7274,Arapovac - Raskrsnica,44.4552667000,20.3882183000,2,0,
27275,7275,Arapovac - Rož. put,44.4532819199,20.3601357288,2,0,
27276,7276,Arapovac - Rož. put,44.4533553116,20.3599793822,2,0,
27277,7277,Arapovac II,44.4481767000,20.3844850000,2,0,
27278,7278,Arapovac II,44.4482209600,20.3846124196,2,0,
27279,7279,Arapovac I,44.4526083000,20.3869683000,2,0,
27280,7280,Arapovac I,44.4526928707,20.3870315742,2,0,
27281,7281,Arnajevo - N. kuća,44.4914763322,20.3452906178,2,0,
27282,7282,Arnajevo - N. kuća,44.4915255267,20.3450713503,2,0,
27283,7283,Arnajevo - okretnica,44.4926980303,20.3494231577,2,0,
27284,7284,Arnajevo - okretnica,44.4926846876,20.3491745187,2,0,
27287,7287,Baroševac - Montaža,44.4163950000,20.3781700000,2,0,
27288,7288,Baroševac - Montaža,44.4164033000,20.3782567000,2,0,
27295,7295,Baroševac,44.3992403378,20.3690543822,2,0,
27296,7296,Baroševac,44.3993564983,20.3691256700,2,0,
27297,7297,Beko,44.3761825937,20.2895918752,2,0,
27298,7298,Beko,44.3762754143,20.2896357344,2,0,
27299,7299,Bistrica - Krivina,44.3681837758,20.3308284110,2,0,
27300,7300,Bistrica - Krivina,44.3683970936,20.3312426281,2,0,
27301,7301,Bistrica - Centar,44.3671099781,20.3431130905,2,0,
27302,7302,Bistrica - Centar,44.3671380960,20.3434657047,2,0,
27303,7303,Barzilovica - Vis,44.3475233000,20.2994683000,2,0,
27304,7304,Barzilovica - Vis,44.3475833000,20.2994417000,2,0,
27305,7305,Barzilovica - Kamenica,44.3010883000,20.2882033000,2,0,
27306,7306,Barzilovica - Kamenica,44.3010600000,20.2883617000,2,0,
27307,7307,Barzilovica - Bug. potok,44.3004433000,20.2826600000,2,0,
27308,7308,Barzilovica - Bug. potok,44.3004713355,20.2826051810,2,0,
27309,7309,Barzilovica - Selo,44.3387283000,20.3050233000,2,0,
27310,7310,Barzilovica - Selo,44.3389717000,20.3052600000,2,0,
27311,7311,Barzilovica - Tom. kuće,44.2998567000,20.2742983000,2,0,
27312,7312,Barzilovica - Tom. kuće,44.2998183000,20.2740683000,2,0,
27313,7313,Barzilovica - Centar,44.3332617000,20.3021483000,2,0,
27314,7314,Barzilovica - Centar,44.3331600000,20.3022500000,2,0,
27315,7315,Barzilovica - II,44.2969807158,20.2963178043,2,0,
27316,7316,Barzilovica - II,44.2969950000,20.2962550000,2,0,
27317,7317,Barzilovica - I,44.2945017000,20.3009417000,2,0,
27318,7318,Barzilovica - I,44.2944549549,20.3008925420,2,0,
27319,7319,Brajkovac - Dom,44.2958600000,20.3277600000,2,0,
27320,7320,Brajkovac - Dom,44.2960250000,20.3280767000,2,0,
27321,7321,Brajkovac - J. kuće,44.3102817000,20.3172000000,2,0,
27322,7322,Brajkovac - J. kuće,44.3103683000,20.3171217000,2,0,
27323,7323,Brajkovac - M kuće,44.3164167000,20.3126133000,2,0,
27324,7324,Brajkovac - M kuće,44.3164983000,20.3125967000,2,0,
27325,7325,Brajkovac - P kuće,44.2923733000,20.3186133000,2,0,
27326,7326,Brajkovac - P kuće,44.2923468566,20.3186989595,2,0,
27327,7327,Brajkovac - R. kuće,44.3016200000,20.3222517000,2,0,
27328,7328,Brajkovac - R. kuće,44.3017433000,20.3221550000,2,0,
27330,7330,Brajkovac - Crkva,44.3053867000,20.3190450000,2,0,
27331,7331,Brajkovac II,44.2931875000,20.3083292000,2,0,
27332,7332,Brajkovac II,44.2931842000,20.3081444000,2,0,
27333,7333,Brajkovac Ž. kuće,44.3234267000,20.3082150000,2,0,
27334,7334,Brajkovac Ž. kuće,44.3233700000,20.3082700000,2,0,
27335,7335,Burovo - Dom,44.4011100000,20.2922683000,2,0,
27336,7336,Burovo - Dom,44.4011517000,20.2921717000,2,0,
27337,7337,Burovo - Novo naselje,44.3974067000,20.2811550000,2,0,
27338,7338,Burovo - Novo naselje,44.3970100000,20.2810767000,2,0,
27339,7339,Burovo - Okretnica,44.4014717000,20.3002033000,2,0,
27340,7340,Burovo - Okretnica,44.4014450000,20.2998267000,2,0,
27341,7341,Burovo - Potok,44.4001667000,20.2842983000,2,0,
27342,7342,Burovo - Potok,44.4001250000,20.2842700000,2,0,
27343,7343,Burovo - Prodavnica,44.3917183000,20.2790383000,2,0,
27344,7344,Burovo - Prodavnica,44.3915317000,20.2789900000,2,0,
27345,7345,Burovo - C. međe raskrsnica,44.3998100000,20.2815633000,2,0,
27346,7346,Burovo - C. međe raskrsnica,44.3999483000,20.2815933000,2,0,
27347,7347,Veliki Crljeni - Matića kuća,44.4884088912,20.2913442509,2,0,
27348,7348,Veliki Crljeni - Matića kuća,44.4887183942,20.2912999073,2,0,
27349,7349,Termoelektrana,44.4802310058,20.2902723844,2,0,
27350,7350,Termoelektrana,44.4805064454,20.2899180796,2,0,
27351,7351,Veliki crljeni - Vaga,44.4776719853,20.2905770902,2,0,
27352,7352,Veliki crljeni - Vaga,44.4777276569,20.2904374491,2,0,
27353,7353,Veliki crljeni - Dom,44.4673020134,20.2841670497,2,0,
27354,7354,Veliki crljeni - Dom,44.4673963694,20.2840488104,2,0,
27355,7355,Volujak - Raskrsnica,44.4657727560,20.3226752626,2,0,
27356,7356,Volujak - Raskrsnica,44.4657567000,20.3228550000,2,0,
27357,7357,Vrbovno (ulaz),44.5452029797,20.3007921865,2,0,
27358,7358,Vrbovno (ulaz),44.5459900000,20.3005200000,2,0,
27359,7359,Vrbovno (4.vojvođanske),44.5352686037,20.2986373178,2,0,
27360,7360,Vrbovno (4.vojvođanske),44.5352470682,20.2984907288,2,0,
27362,7362,Vrbovno - Selo,44.5411017000,20.2840683000,2,0,
27363,7363,Vrbovno - Selo,44.5410624000,20.2841068000,2,0,
27368,7368,Vrbovno Lil. kuća,44.5409360000,20.2770710000,2,0,
27370,7370,Vreoci - Branina prodavnica,44.4290850836,20.2853286938,2,0,
27371,7371,Vreoci - Branina prodavnica,44.4292756465,20.2852107288,2,0,
27373,7373,Vreoci - Dom,44.4428187551,20.2825566949,2,0,
27374,7374,Vreoci - Dom,44.4434397851,20.2823367258,2,0,
27375,7375,Vreoci - Stara toplana,44.4485882995,20.2816602332,2,0,
27376,7376,Vreoci - Stara toplana,44.4483640443,20.2815353699,2,0,
27377,7377,Vreoci - Feo,44.4265050000,20.2863600000,2,0,
27378,7378,Vreoci - Feo,44.4264376520,20.2861827024,2,0,
27379,7379,Vreoci - Sušara,44.4333262134,20.2798073142,2,0,
27380,7380,Vreoci - Sušara,44.4341790673,20.2796255601,2,0,
27383,7383,Junkovac - Groblje,44.4595010807,20.3353732945,2,0,
27384,7384,Junkovac - Groblje,44.4596529616,20.3353357233,2,0,
27385,7385,Gunjevac - Raskrsnica,44.4349454283,20.4264189159,2,0,
27386,7386,Gunjevac - Raskrsnica,44.4348383000,20.4266067000,2,0,
27387,7387,Gunjevac - Čaj. kuća,44.4406978868,20.4340837845,2,0,
27388,7388,Gunjevac - Čaj. kuća,44.4407417000,20.4341050000,2,0,
27389,7389,Gunjevac okretnica,44.4378471666,20.4350119985,2,0,
27390,7390,Gunjevac okretnica,44.4378650000,20.4349400000,2,0,
27391,7391,Rudovci - Dikovan,44.3820386116,20.4025052276,2,0,
27392,7392,Rudovci - Dikovan,44.3817733000,20.4027983000,2,0,
27395,7395,Dren - Kafana,44.3737157072,20.3112643822,2,0,
27396,7396,Dren - Kafana,44.3737820378,20.3111843822,2,0,
27397,7397,Dren - Majorova kuća,44.3777036171,20.3144881779,2,0,
27398,7398,Dren I,44.3718300809,20.3055173123,2,0,
27399,7399,Dren I,44.3720533456,20.3062678079,2,0,
27400,7400,Dren potok,44.3798454173,20.2967139178,2,0,
27402,7402,Dren škola,44.3803050000,20.3122033000,2,0,
27404,7404,Dudovica - A. kuće,44.2871700000,20.2714280000,2,0,
27405,7405,Dudovica - A. kuće,44.2872450000,20.2710980000,2,0,
27406,7406,Dudovica - B. Velja,44.2710260000,20.2839660000,2,0,
27407,7407,Dudovica - B. Velja,44.2709773824,20.2840131865,2,0,
27408,7408,Dudovica - Marinac,44.2760810000,20.2875230000,2,0,
27409,7409,Dudovica - Marinac,44.2760850000,20.2876860000,2,0,
27410,7410,Dudovica - P. kuće,44.2859292481,20.2797915378,2,0,
27411,7411,Dudovica - P. kuće,44.2859810000,20.2798610000,2,0,
27412,7412,Dudovica okretnica,44.2970850000,20.2640030000,2,0,
27413,7413,Dudovica okretnica,44.2970783000,20.2641983000,2,0,
27414,7414,Čibutkovica III,44.3049331781,20.2568291656,2,0,
27415,7415,Čibutkovica III,44.3050618832,20.2568794233,2,0,
27416,7416,Županjac II,44.3369408157,20.2122079301,2,0,
27417,7417,Županjac II,44.3365833000,20.2128400000,2,0,
27418,7418,Županjac I,44.3428051855,20.2028376715,2,0,
27419,7419,Županjac I,44.3429348664,20.2028486466,2,0,
27420,7420,Žuto brdo,44.3531459199,20.3555402694,2,0,
27421,7421,Žuto brdo,44.3538538032,20.3547613630,2,0,
27422,7422,Vreoci - Zavod,44.4287325129,20.2792848541,2,0,
27423,7423,Vreoci - Zavod,44.4286475662,20.2790811748,2,0,
27426,7426,Zeoke - Železnička stanica,44.4027674303,20.3200067110,2,0,
27427,7427,Zeoke - Železnička stanica,44.4028305298,20.3192888104,2,0,
27428,7428,Zeoke - Žuta kuća,44.4035350000,20.3137750000,2,0,
27429,7429,Zeoke - Žuta kuća,44.4035617000,20.3136200000,2,0,
27430,7430,Zeoke - Okretnica,44.4023772951,20.3281356123,2,0,
27431,7431,Zeoke - Okretnica,44.4023533000,20.3280133000,2,0,
27440,7440,Zeoke,44.4043930000,20.3299920000,2,0,
27441,7441,Zeoke,44.4044600000,20.3304820000,2,0,
27443,7443,Junkovac - Dom,44.4504696881,20.3504163705,2,0,
27444,7444,Junkovac - Dom,44.4505817000,20.3504717000,2,0,
27445,7445,Junkovac - Prodavnica,44.4557198890,20.3424276914,2,0,
27446,7446,Junkovac - Prodavnica,44.4554017000,20.3424950000,2,0,
27447,7447,Kosmaj,44.4689923442,20.3154593730,2,0,
27448,7448,Kosmaj,44.4690792583,20.3153786534,2,0,
27449,7449,Kruševica,44.3488647707,20.3993499874,2,0,
27450,7450,Kruševica,44.3489754672,20.3991732221,2,0,
27451,7451,Lazarevac (centar),44.3805844470,20.2594119184,2,0,
27452,7452,Lazarevac (centar),44.3803917215,20.2594535951,2,0,
27453,7453,Lazarevac - Bolnica,44.3817201281,20.2727409686,2,0,
27454,7454,Lazarevac - Bolnica,44.3817194580,20.2739217442,2,0,
27455,7455,Lazarevac - Vrtić,44.3822793993,20.2726236350,2,0,
27456,7456,Lazarevac - Vrtić,44.3822017000,20.2724333000,2,0,
27457,7457,Lazarevac - Groblje,44.3851037120,20.2765451359,2,0,
27458,7458,Lazarevac - Groblje,44.3851400000,20.2765367000,2,0,
27459,7459,Lazarevac - Ineks,44.3848161824,20.2493901914,2,0,
27460,7460,Lazarevac - Ineks,44.3845839590,20.2491837270,2,0,
27461,7461,Lazarevac - L. put,44.3791221266,20.2808312150,2,0,
27462,7462,Lazarevac - L. put,44.3792849306,20.2806822976,2,0,
27463,7463,Lazarevac (Rasadnik),44.3718583000,20.2751783000,2,0,
27464,7464,Lazarevac (Rasadnik),44.3718683000,20.2752717000,2,0,
27465,7465,Lazarevac - Rampa,44.3862202080,20.2543815650,2,0,
27466,7466,Lazarevac - Rampa,44.3866537072,20.2538444080,2,0,
27467,7467,Lazarevac AS,44.3791319545,20.2644309822,2,0,
27468,7468,Lazarevac AS,44.3790981385,20.2645948393,2,0,
27469,7469,Strmovo - Lazića kuće,44.4092383000,20.3995983000,2,0,
27470,7470,Strmovo - Lazića kuće,44.4091333000,20.3994433000,2,0,
27471,7471,Leskovac - Dom,44.5236800000,20.3316633000,2,0,
27472,7472,Leskovac - Dom,44.5237900254,20.3313428631,2,0,
27473,7473,Leskovac - Dom,44.5236940000,20.3313060000,2,0,
27474,7474,Železnička stanica "Lazarevac",44.3847940000,20.2457850000,2,0,
27476,7476,Njegoševa,44.3858021683,20.2652270466,2,0,
27477,7477,Leskovac - Lipovica,44.5164382423,20.3154544964,2,0,
27478,7478,Leskovac - Lipovica,44.5164000000,20.3152117000,2,0,
27479,7479,Bataševo,44.4243032024,20.7019463558,2,0,
27480,7480,Bataševo,44.4243011258,20.7020541601,2,0,
27481,7481,Leskovac - Prodavnica,44.5228579510,20.3254326546,2,0,
27482,7482,Leskovac - Prodavnica,44.5227492698,20.3253839270,2,0,
27483,7483,Leskovac - Trafostanica,44.5199653561,20.3243032724,2,0,
27484,7484,Leskovac - Trafostanica,44.5200347231,20.3244797136,2,0,
27485,7485,Vreoci - Zavod,44.4292620000,20.2799080000,2,0,
27487,7487,O.Š. Dule Karaklajić,44.3837840000,20.2546020000,2,0,
27488,7488,O.Š. Dule Karaklajić	,44.3838360000,20.2546400000,2,0,
27489,7489,Leskovac - F. kuća,44.5282618286,20.3266052184,2,0,
27490,7490,Leskovac - F. kuća,44.5282952871,20.3266937699,2,0,
27491,7491,Leskovac - Crkva,44.5104470699,20.3434742620,2,0,
27492,7492,Leskovac - Crkva,44.5105225517,20.3433697889,2,0,
27493,7493,Lipar,44.3500601979,20.3830332597,2,0,
27494,7494,Lipar,44.3502317000,20.3828700000,2,0,
27495,7495,Leskovac - Prljuša,44.5205059628,20.3371980558,2,0,
27496,7496,Leskovac - Prljuša,44.5206138183,20.3372366963,2,0,
27497,7497,Lukavica - Vodovod,44.3748265932,20.2941658152,2,0,
27498,7498,Lukavica - Vodovod,44.3749425485,20.2942365945,2,0,
27499,7499,Lukavica - Dom,44.3686500000,20.2874717000,2,0,
27500,7500,Lukavica - Dom,44.3686183000,20.2872217000,2,0,
27501,7501,Lukavica - Igralište,44.3717467000,20.2835100000,2,0,
27502,7502,Lukavica - Igralište,44.3719667000,20.2832950000,2,0,
27503,7503,Lukavica - Lj. kuća,44.3648170000,20.2933760000,2,0,
27504,7504,Lukavica - Lj. kuća,44.3647833000,20.2931950000,2,0,
27505,7505,Lukavica - Okretnica,44.3638683000,20.2981440000,2,0,
27508,7508,Mali Crljeni - Kupatilo,44.3864554328,20.3973877123,2,0,
27509,7509,Mali Crljeni - Kupatilo,44.3864009584,20.3975888411,2,0,
27510,7510,Mali Crljeni,44.3890198434,20.3939208399,2,0,
27511,7511,Mali Crljeni,44.3889698495,20.3938260288,2,0,
27512,7512,Veliki Crljeni - Mar. kuća,44.4758318673,20.3030710577,2,0,
27513,7513,Veliki Crljeni - Mar. kuća,44.4760700000,20.3027228190,2,0,
27514,7514,Gunjevac - Mariće kuće,44.4412450000,20.4312950000,2,0,
27515,7515,Gunjevac - Mariće kuće,44.4412794734,20.4312305976,2,0,
27516,7516,Medoševac - Vodovod,44.4159383000,20.3103617000,2,0,
27517,7517,Medoševac - Vodovod,44.4160053045,20.3100620994,2,0,
27518,7518,Medoševac - Groblje,44.4209032631,20.2980398981,2,0,
27519,7519,Medoševac - Groblje,44.4209867000,20.2979950000,2,0,
27523,7523,Mirosaljci - Spomenik,44.4383400000,20.4131500000,2,0,
27524,7524,Mirosaljci - Dom,44.4370117000,20.4181033000,2,0,
27525,7525,Mirosaljci - Dom,44.4370100000,20.4179000000,2,0,
27526,7526,Mirosaljci - Perilo,44.4298529615,20.4034291454,2,0,
27527,7527,Mirosaljci - Perilo,44.4299283000,20.4033583000,2,0,
27528,7528,Mirosaljci - R. kuće,44.4385430829,20.3882581926,2,0,
27529,7529,Mirosaljci - R. kuće,44.4388533000,20.3880300000,2,0,
27530,7530,Mirosaljci - Stev. kuće,44.4348737328,20.3941101901,2,0,
27531,7531,Mirosaljci - Stev. kuće,44.4349117000,20.3941833000,2,0,
27532,7532,Mirosaljci - Hrast,44.4366333000,20.4112750000,2,0,
27533,7533,Mirosaljci - Hrast,44.4367367000,20.4112600000,2,0,
27534,7534,Nekića kuće,44.3552930939,20.3637596411,2,0,
27535,7535,Nekića kuće,44.3554783735,20.3632846728,2,0,
27536,7536,Petka - Dom,44.3737762306,20.2318513558,2,0,
27537,7537,Petka - Dom,44.3737758928,20.2321132209,2,0,
27538,7538,Petka - Magistrala,44.3693237497,20.2131136644,2,0,
27539,7539,Petka - Magistrala,44.3691308262,20.2114757288,2,0,
27540,7540,Petka II,44.3702610162,20.2191732165,2,0,
27541,7541,Petka II,44.3702706774,20.2197127344,2,0,
27542,7542,Petka I,44.3793915527,20.2418147669,2,0,
27543,7543,Petka I,44.3789223221,20.2414608307,2,0,
27544,7544,Peštan,44.4202790936,20.2772172843,2,0,
27545,7545,Peštan,44.4204614892,20.2771203938,2,0,
27546,7546,Prkosava - Dom,44.3957552175,20.4240104450,2,0,
27547,7547,Prkosava - Dom,44.3958040495,20.4240041491,2,0,
27550,7550,Prkosava - N. kuće,44.3952440810,20.4300225564,2,0,
27551,7551,Prkosava - N. kuće,44.3952933000,20.4300617000,2,0,
27552,7552,Prkosava - Okretnica,44.3926485926,20.4363862301,2,0,
27554,7554,Prkosava - Kop,44.3919467000,20.4191617000,2,0,
27555,7555,Prkosava - Kop,44.3918417000,20.4190900000,2,0,
27556,7556,Čibutkovica I,44.3218024892,20.2257256215,2,0,
27557,7557,Čibutkovica I,44.3219767002,20.2258205139,2,0,
27558,7558,Rudovci - Simića kuće,44.3583498064,20.4045308804,2,0,
27559,7559,Rudovci - Simića kuće,44.3584869177,20.4045879245,2,0,
27560,7560,Rudovci II,44.3630504121,20.4070363466,2,0,
27561,7561,Rudovci II,44.3632361764,20.4072749945,2,0,
27562,7562,Rudovci I,44.3693647934,20.4092755920,2,0,
27563,7563,Rudovci I,44.3695877330,20.4089519736,2,0,
27567,7567,Rudovci - Selo,44.3738636164,20.4075445975,2,0,
27568,7568,Rudovci - Selo,44.3744374618,20.4075650761,2,0,
27570,7570,Sokolovački put,44.4724417000,20.3099738982,2,0,
27571,7571,Sokolovački put,44.4727812599,20.3094815606,2,0,
27572,7572,Sokolovo - Jag. kuća,44.4848450000,20.3311017000,2,0,
27573,7573,Sokolovo - Jag. kuća,44.4849886173,20.3313795245,2,0,
27574,7574,Sokolovo ,44.4859333000,20.3369954663,2,0,
27575,7575,Sokolovo ,44.4859631813,20.3368687902,2,0,
27576,7576,Karađorđeva,44.4964870000,20.3042160000,2,0,
27577,7577,Žel. st. Stepojevac,44.4969370000,20.3107150000,2,0,
27578,7578,Staklenik,44.4134959338,20.2718580521,2,0,
27579,7579,Staklenik,44.4133868287,20.2715513503,2,0,
27581,7581,Stepojevac - pijaca,44.5135652787,20.2947768203,2,0,
27582,7582,Stepojevac - pijaca,44.5136607322,20.2947691399,2,0,
27583,7583,Stepojevac - Dubrava,44.5157104098,20.3084715890,2,0,
27584,7584,Stepojevac - Dubrava,44.5158230874,20.3086798687,2,0,
27585,7585,Pantića kraj,44.5799368000,20.2649455000,2,0,
27586,7586,Pantića kraj,44.5798922012,20.2650307877,2,0,
27587,7587,Put za Žel. st. "Stepojevac",44.4967533000,20.2929083000,2,0,
27588,7588,Put za Žel. st. "Stepojevac",44.4968047545,20.2928143002,2,0,
27589,7589,Stolice,44.3700329612,20.3022897466,2,0,
27590,7590,Stolice,44.3700593801,20.3021581981,2,0,
27591,7591,Strmovo - Okretnica,44.4051204190,20.4123498595,2,0,
27592,7592,Strmovo - Okretnica,44.4050900000,20.4121150000,2,0,
27593,7593,Karađorđeva,44.4965340000,20.3043750000,2,0,
27594,7594,Put za Žel. st. Stepojevac,44.4967760000,20.2930090000,2,0,
27595,7595,Strmovo - Spomenik,44.4107521000,20.4068927000,2,0,
27596,7596,Strmovo - Spomenik,44.4106583000,20.4067933000,2,0,
27600,7600,Strmovo prodavnica,44.4081700000,20.4093417000,2,0,
27601,7601,Strmovo prodavnica,44.4082133000,20.4092483000,2,0,
27602,7602,Stubica - Česma,44.3585083000,20.2910217000,2,0,
27603,7603,Stubica - Česma,44.3587750000,20.2906867000,2,0,
27604,7604,Stubica - Okretnica,44.3533261674,20.2946402331,2,0,
27605,7605,Stubica - Okretnica,44.3532717000,20.2945583000,2,0,
27606,7606,Stubica I,44.3668850000,20.2797383000,2,0,
27607,7607,Stubica I,44.3667883000,20.2799050000,2,0,
27608,7608,Stubica S. kuće,44.3623067000,20.2838150000,2,0,
27609,7609,Stubica S. kuće,44.3624295167,20.2837214577,2,0,
27610,7610,Sumeđ - P. kuće,44.4862600000,20.2581317000,2,0,
27611,7611,Sumeđ - Dom ,44.4928450000,20.2578600000,2,0,
27612,7612,Trbušnica - Dom,44.3532771878,20.3729559572,2,0,
27613,7613,Trbušnica - Dom,44.3534132326,20.3728017110,2,0,
27614,7614,Čibutkovica II,44.3121650000,20.2412733000,2,0,
27615,7615,Čibutkovica II,44.3133067000,20.2399050000,2,0,
27616,7616,Dudovica,44.2970649695,20.2640006574,2,0,
27617,7617,Dudovica,44.2967535217,20.2639947055,2,0,
27618,7618,Ceroviti potok,44.3940122866,20.3844091748,2,0,
27619,7619,Ceroviti potok,44.3941483000,20.3843683000,2,0,
27620,7620,Šarena kapija,44.3693137024,20.3243858399,2,0,
27621,7621,Šarena kapija,44.3692503959,20.3239552503,2,0,
27622,7622,Šopić - Dom,44.3917607090,20.2523124196,2,0,
27623,7623,Šopić - Dom,44.3923601276,20.2520925380,2,0,
27624,7624,Šopić - Krivaja,44.4031772219,20.2580818507,2,0,
27625,7625,Šopić - Krivaja,44.4020199963,20.2565871435,2,0,
27626,7626,Arnajevo - Mlekara,44.4936214832,20.3575526620,2,0,
27636,7636,Arnajevo - Selo,44.4963645698,20.3713491601,2,0,
27637,7637,Arnajevo - Selo,44.4967250000,20.3715083000,2,0,
27638,7638,Arnajevo - Ulaz,44.5014387348,20.3759367000,2,0,
27639,7639,Arnajevo - Ulaz,44.5013522652,20.3759881871,2,0,
27640,7640,Arnajevo - Škola,44.4895188583,20.3699780705,2,0,
27641,7641,Arnajevo - Škola,44.4895706119,20.3702662043,2,0,
27643,7643,Arnajevo R,44.5334120642,20.4041530227,2,0,
27644,7644,Arnajevo R,44.5332860240,20.4037812337,2,0,
27645,7645,Auto servis Neša,44.6002667000,20.4679467000,2,0,
27646,7646,Auto servis Neša,44.6003450000,20.4678467000,2,0,
27647,7647,Vrelinska,44.6074826056,20.4131889012,2,0,
27648,7648,Vrelinska,44.6073759044,20.4130924491,2,0,
27649,7649,Barajevo (Prokića kraj),44.5820654527,20.4056809368,2,0,
27650,7650,Barajevo (Prokića kraj),44.5819574871,20.4059761724,2,0,
27651,7651,Barajevo - Centar,44.5780039369,20.4156100056,2,0,
27652,7652,Barajevo - Centar,44.5780030448,20.4151861282,2,0,
27653,7653,Barajevo (Miodraga Vukovića),44.5823067000,20.4224083000,2,0,
27654,7654,Barajevo (Miodraga Vukovića),44.5825067000,20.4226217000,2,0,
27655,7655,Barajevo AS,44.5799297494,20.4130986908,2,0,
27656,7656,Barajevo AS,44.5798928241,20.4134590441,2,0,
27657,7657,Barajevo IKL,44.5934318386,20.4135549976,2,0,
27658,7658,Barajevo IKL,44.5934470246,20.4133643613,2,0,
27659,7659,Baćevac - Dom,44.5853880272,20.3756489978,2,0,
27660,7660,Baćevac - Dom,44.5853556149,20.3753674626,2,0,
27661,7661,Baćevac - Ekonomija,44.5903345726,20.3752995947,2,0,
27662,7662,Baćevac - Ekonomija,44.5901488348,20.3750324435,2,0,
27663,7663,Baćevac - Igralište,44.5979899853,20.3704523664,2,0,
27664,7664,Baćevac - Igralište,44.5978558414,20.3706148109,2,0,
27665,7665,Baćevac - Skojevska,44.5941894238,20.3736644461,2,0,
27666,7666,Baćevac - Skojevska,44.5941214499,20.3736049149,2,0,
27667,7667,Baćevac - Crkva,44.5866173202,20.3862525024,2,0,
27668,7668,Baćevac - Crkva,44.5869130810,20.3862189159,2,0,
27669,7669,Baćevac - Izlaz,44.6070075851,20.3677594356,2,0,
27670,7670,Baćevac - Izlaz,44.6069226091,20.3676668994,2,0,
27671,7671,Baćevac R Ibarska,44.6107110902,20.3604909533,2,0,
27672,7672,Baćevac R Ibarska,44.6105684697,20.3599032244,2,0,
27673,7673,Baćevac  R,44.5849605026,20.3827662518,2,0,
27674,7674,Baćevac R,44.5848765095,20.3827143838,2,0,
27675,7675,Janković kraj,44.5755386402,20.3697672761,2,0,
27678,7678,Belo brdo,44.5129267000,20.3902933000,2,0,
27679,7679,Belo brdo,44.5129141847,20.3904502423,2,0,
27682,7682,Beljina - Karaula,44.5079592564,20.3869996301,2,0,
27683,7683,Beljina - Karaula,44.5079884693,20.3871280411,2,0,
27684,7684,Beljina - Strugara,44.5166811460,20.3992242804,2,0,
27685,7685,Beljina - Strugara,44.5165537023,20.3992570410,2,0,
27686,7686,Baćevac R Ibarska,44.6103169297,20.3609015239,2,0,
27687,7687,Beljina - Centar,44.5201486776,20.3954662209,2,0,
27688,7688,Beljina - Centar,44.5201799420,20.3955784779,2,0,
27689,7689,Baćevac dom,44.5853100000,20.3750120000,2,0,
27690,7690,Beljina I,44.5124964015,20.4049687780,2,0,
27691,7691,Beljina I,44.5125560015,20.4051266958,2,0,
27692,7692,Boždarevac - Voće,44.5704583000,20.4018800000,2,0,
27693,7693,Boždarevac - Voće,44.5705976222,20.4020271777,2,0,
27694,7694,Boždarevac - Dom,44.5558300000,20.3958617000,2,0,
27695,7695,Boždarevac - Dom,44.5557398751,20.3959477063,2,0,
27696,7696,Boždarevac - Izlaz,44.5526770971,20.3858946702,2,0,
27697,7697,Boždarevac - Izlaz,44.5527448141,20.3859578225,2,0,
27698,7698,Boždarevac - Mlin,44.5563700000,20.3869000000,2,0,
27699,7699,Boždarevac - Mlin,44.5562983000,20.3873267000,2,0,
27700,7700,Boždarevac - Prodavnica,44.5596683000,20.3820517000,2,0,
27701,7701,Boždarevac - Prodavnica,44.5596700000,20.3822017000,2,0,
27702,7702,Boždarevac - Trafo,44.5640135981,20.3996863212,2,0,
27703,7703,Boždarevac - Trafo,44.5640562304,20.3997271174,2,0,
27704,7704,Boždarevac - Ulaz,44.5621521532,20.3720450385,2,0,
27705,7705,Boždarevac - Ulaz,44.5621100000,20.3720833000,2,0,
27706,7706,Boždarevac R,44.5676008153,20.3663784386,2,0,
27708,7708,Bučije,44.5673206900,20.3663387971,2,0,
27709,7709,Bučije,44.5673800000,20.3662150000,2,0,
27711,7711,Velike Gunjice,44.5998431724,20.3325882890,2,0,
27712,7712,Velike Gunjice,44.5997692019,20.3327526877,2,0,
27713,7713,Veliki Borak - Vis,44.5635440000,20.3634064000,2,0,
27714,7714,Veliki Borak - Vis,44.5633933000,20.3633067000,2,0,
27715,7715,Veliki Borak - Dom,44.5391017000,20.3501967000,2,0,
27716,7716,Veliki Borak - Dom,44.5390100000,20.3501783000,2,0,
27717,7717,Veliki Borak - Železnička stanica,44.5398619940,20.3780367038,2,0,
27718,7718,Veliki Borak - Železnička stanica,44.5397879432,20.3779653285,2,0,
27719,7719,Veliki Borak - Okretnica,44.5536409388,20.3521534379,2,0,
27720,7720,Veliki Borak - Okretnica,44.5535780900,20.3519071125,2,0,
27721,7721,Veliki Borak 1,44.5584516605,20.3574573856,2,0,
27722,7722,Veliki Borak 1,44.5584183000,20.3574133000,2,0,
27723,7723,Veliki Crljeni - Vaga ,44.4772366968,20.2901601313,2,0,
27724,7724,Veliki Crljeni - Vaga ,44.4770752138,20.2900129540,2,0,
27727,7727,Barzilovica - D. kuće,44.3479079314,20.2960940890,2,0,
27728,7728,Barzilovica - D. kuće,44.3480131109,20.2961066264,2,0,
27729,7729,Ljubivoja Mihailovića,44.5783367438,20.3707414429,2,0,
27730,7730,Dragutina Jovanović - Karla,44.5818040000,20.3752140000,2,0,
27731,7731,Radodvana Patelića Pure,44.5842950000,20.3783280000,2,0,
27732,7732,Vranić R,44.6070179000,20.3553495000,2,0,
27733,7733,Vranić R,44.6069527356,20.3554180147,2,0,
27734,7734,Vranić centar,44.5944597000,20.3095993000,2,0,
27735,7735,Vranić centar,44.5944256255,20.3097881871,2,0,
27736,7736,Staro selo,44.5601720000,20.3759580000,2,0,
27737,7737,Staro selo,44.5600107126,20.3763111857,2,0,
27739,7739,Glumčevo brdo - Dom,44.6152550000,20.4547583000,2,0,
27741,7741,Glumčevo brdo - Škola,44.6141533000,20.4474967000,2,0,
27743,7743,Groblje,44.6071383000,20.4367183000,2,0,
27744,7744,Guberevac - Dom Zdravlja,44.5396506704,20.4683703669,2,0,
27745,7745,Guberevac - Dom Zdravlja,44.5397113000,20.4682850000,2,0,
27746,7746,Guberevac - Dubrave,44.5475367000,20.4545933000,2,0,
27747,7747,Guberevac - Dubrave,44.5475100000,20.4546983000,2,0,
27748,7748,Minel - Dinamo,44.6145078187,20.4110874724,2,0,
27750,7750,Guberevac - Prodavnica,44.5374467000,20.4640483000,2,0,
27751,7751,Guberevac - Prodavnica,44.5375100000,20.4640117000,2,0,
27752,7752,Guberevac II,44.5374933000,20.4576167000,2,0,
27753,7753,Guberevac II,44.5375778593,20.4575931687,2,0,
27754,7754,Guberevac I,44.5387458819,20.4546707380,2,0,
27755,7755,Guberevac I,44.5388600000,20.4547000000,2,0,
27756,7756,Guberevac R,44.5705222600,20.4233175657,2,0,
27757,7757,Guberevac R,44.5703711784,20.4232314521,2,0,
27758,7758,Guncati - Okretnica,44.5963613359,20.4021292914,2,0,
27759,7759,Guncati - Okretnica,44.5965559293,20.4021969681,2,0,
27760,7760,Guncati - Reka,44.5926140074,20.3967279301,2,0,
27761,7761,Guncati - Reka,44.5927448860,20.3967829245,2,0,
27762,7762,Guncati - Ulaz,44.6124518967,20.4043827767,2,0,
27763,7763,Guncati - Ulaz,44.6123842237,20.4045132945,2,0,
27764,7764,Guncati dom,44.6000325091,20.4000875518,2,0,
27765,7765,Guncati dom,44.6000608863,20.4001990233,2,0,
27766,7766,Minel - Dinamo,44.6138513542,20.4114080932,2,0,
27767,7767,Guncati R,44.6185391850,20.4099175859,2,0,
27768,7768,Guncati R,44.6180525409,20.4099975606,2,0,
27769,7769,Dom Zdravlja,44.6004910592,20.3246031724,2,0,
27770,7770,Dom Zdravlja,44.6004812847,20.3251153497,2,0,
27782,7782,Dubrave,44.5653833000,20.3015683000,2,0,
27788,7788,Đoinčevića kuće,44.5980817000,20.3182233000,2,0,
27789,7789,Đoinčevića kuće,44.5981030211,20.3185031632,2,0,
27793,7793,Igralište,44.5363030000,20.3528830000,2,0,
27794,7794,Igralište,44.5362640000,20.3531250000,2,0,
27795,7795,Izvor šenj,44.5338498827,20.3651353120,2,0,
27796,7796,Izvor šenj,44.5337506500,20.3652362281,2,0,
27797,7797,Janković kraj,44.5755517000,20.3698650000,2,0,
27798,7798,Jozića kraj,44.6047209035,20.3482192914,2,0,
27799,7799,Jozića kraj,44.6047403330,20.3485940031,2,0,
27800,7800,Karaula - Ivkovića kraj,44.5889500000,20.4481317000,2,0,
27801,7801,Karaula - Ivkovića kraj,44.5889183000,20.4482133000,2,0,
27802,7802,Karaula - Ulaz,44.5878180000,20.4434450000,2,0,
27803,7803,Karaula - Ulaz,44.5877867000,20.4430850000,2,0,
27804,7804,Karaula R,44.5886381451,20.4287259476,2,0,
27805,7805,Karaula R,44.5885330000,20.4290490000,2,0,
27806,7806,Klupice,44.5962433000,20.2967333000,2,0,
27807,7807,Klupice,44.5960833000,20.2966483000,2,0,
27808,7808,Kuzmanovići R,44.6211070000,20.4293300000,2,0,
27809,7809,Kuzmanovići R,44.6212130000,20.4294430000,2,0,
27810,7810,Svetosavska (Beli Labud),44.6007073395,20.4137175283,2,0,
27811,7811,Svetosavska (Beli Labud),44.6014759390,20.4137346503,2,0,
27812,7812,Guncati - Lecina bara,44.6075735710,20.4019930284,2,0,
27813,7813,Guncati - Lecina bara,44.6077852764,20.4020577988,2,0,
27814,7814,Lipovica (milicija),44.6374112803,20.4122879681,2,0,
27815,7815,Lipovica (milicija),44.6367941555,20.4121372564,2,0,
27816,7816,Šumska uprava,44.6344830913,20.4100194841,2,0,
27817,7817,Lisović - Barake,44.5538474132,20.4140869479,2,0,
27818,7818,Lisović - Baraka,44.5540350258,20.4144307289,2,0,
27819,7819,Lisović - Mlekara,44.5528910385,20.4476007105,2,0,
27820,7820,Lisović - Mlekara,44.5528817000,20.4476633000,2,0,
27821,7821,Lisović - Pajšuma česma,44.5459567000,20.4439083000,2,0,
27822,7822,Lisović - Pogled,44.5643440561,20.4341891693,2,0,
27823,7823,Lisović - Pogled,44.5644545549,20.4342068276,2,0,
27826,7826,Lisović - Spomenik,44.5477436018,20.4095167405,2,0,
27827,7827,Lisović - Spomenik,44.5477329382,20.4096472828,2,0,
27828,7828,Lisović - Trafo,44.5647954984,20.4174289583,2,0,
27829,7829,Lisović - Trafo,44.5650397993,20.4175206307,2,0,
27830,7830,Lisović M.Z. (Staro selo),44.5502233000,20.4449317000,2,0,
27831,7831,Lisović M.Z. (Staro selo),44.5502600000,20.4449983000,2,0,
27832,7832,Lisović R Pajšuma R,44.5530145285,20.4478041013,2,0,
27833,7833,Lisović spomenik (Suva reka),44.5581517000,20.4410700000,2,0,
27834,7834,Lisović spomenik (Suva reka),44.5582396324,20.4411226914,2,0,
27835,7835,Male Gunjice,44.6012633000,20.3429117000,2,0,
27836,7836,Male Gunjice,44.6013394440,20.3432048834,2,0,
27837,7837,Manić - Izlaz,44.5021651308,20.4147039270,2,0,
27838,7838,Manić - Izlaz,44.5019836143,20.4152400816,2,0,
27840,7840,Put za jezero,44.5882400000,20.4341600000,2,0,
27845,7845,Manić - R,44.5060521729,20.4113311172,2,0,
27846,7846,Manić - R,44.5061833430,20.4113921921,2,0,
27847,7847,Rožanci R,44.5078074000,20.4062252000,2,0,
27848,7848,Mioljica,44.5246307756,20.3976169410,2,0,
27849,7849,Mioljica,44.5245662474,20.3977057344,2,0,
27851,7851,Rožanci R,44.5076978159,20.4066347258,2,0,
27853,7853,Naselje gaj - Okretnica,44.5716804000,20.4284367000,2,0,
27854,7854,Put za jezero,44.5877700000,20.4356000000,2,0,
27855,7855,JKP 10.oktobar,44.5754700000,20.4220200000,2,0,
27856,7856,Naselje gaj - Ulaz,44.5743717000,20.4285383000,2,0,
27857,7857,Naselje Gaj R,44.5674222282,20.4297518368,2,0,
27858,7858,JKP 10.oktobar,44.5752700000,20.4222067000,2,0,
27859,7859,Naselje gaj R,44.5676824086,20.4294290233,2,0,
27860,7860,JKP 10.oktobar,44.5752450000,20.4214660000,2,0,
27862,7862,Naselje izlaz,44.5744633000,20.4286283000,2,0,
27864,7864,Okretnica,44.4717702758,20.8161014424,2,0,
27866,7866,JKP 10.oktobar,44.5756610000,20.4219650000,2,0,
27867,7867,Duje Damnjanovića,44.5789600000,20.4276600000,2,0,
27870,7870,Lisović - Pajšuma - Okretnica,44.5423617000,20.4383083000,2,0,
27872,7872,Duje Damnjanovića,44.5787400000,20.4271600000,2,0,
27877,7877,Petkovići - Trafo,44.6329150000,20.4348390000,2,0,
27878,7878,Petkovići - Trafo,44.6329917000,20.4350367000,2,0,
27879,7879,Petkovići raskrsnica,44.6415680000,20.4417150000,2,0,
27880,7880,Petkovići raskrsnica,44.6414550000,20.4415870000,2,0,
27881,7881,Spomenik,44.4993843903,20.5861515890,2,0,
27882,7882,Spomenik,44.4994600000,20.5862233000,2,0,
27883,7883,Ravni gaj - Vitkovica,44.5813343000,20.4704809000,2,0,
27884,7884,Ravni gaj - Vitkovica,44.5812600000,20.4702800000,2,0,
27885,7885,Ravni gaj - Izlaz,44.5778905000,20.4624500000,2,0,
27886,7886,Ravni gaj - Izlaz,44.5779683000,20.4623383000,2,0,
27887,7887,Ravni gaj - Okretnica,44.5922098000,20.4794932000,2,0,
27889,7889,Ravni gaj - Selo,44.5778855000,20.4434803000,2,0,
27890,7890,Ravni gaj - Selo,44.5780333000,20.4434183000,2,0,
27892,7892,Ravni gaj - Ulaz,44.5789144000,20.4353234000,2,0,
27893,7893,Ravni gaj - Ulaz,44.5790883000,20.4353467000,2,0,
27894,7894,Ravni gaj - Škola,44.5779331000,20.4528986000,2,0,
27895,7895,Ravni gaj - Škola,44.5779800000,20.4525600000,2,0,
27896,7896,Ravni gaj R,44.5863233000,20.4710233000,2,0,
27897,7897,Ravni gaj R,44.5865597000,20.4711736000,2,0,
27898,7898,Rašića kraj - Ulaz,44.5929350000,20.3023667000,2,0,
27899,7899,Rašića kraj - Ulaz,44.5928170944,20.3025682945,2,0,
27900,7900,Stubline - Centar,44.5723100000,20.1514100000,2,0,
27901,7901,Stubline - Centar,44.5722744000,20.1513431000,2,0,
27902,7902,Nemenikuće - škola,44.4971645178,20.5886083092,2,0,
27903,7903,Nemenikuće - škola,44.4968200000,20.5888000000,2,0,
27905,7905,Rašića kraj,44.5915556319,20.2973460841,2,0,
27906,7906,Rašića kraj,44.5915433000,20.2974600000,2,0,
27909,7909,Brđanska,44.6231600000,20.4687150000,2,0,
27910,7910,Dragana Lukića,44.6391400000,20.4271000000,2,0,
27911,7911,Jovana Deretića,44.6365200000,20.4261100000,2,0,
27912,7912,Strugara,44.6351500000,20.4252700000,2,0,
27913,7913,Jovana Deretića,44.6365500000,20.4261700000,2,0,
27914,7914,Dragana Lukića,44.6393000000,20.4271800000,2,0,
27915,7915,Trebež - Okretnica,44.6422500000,20.4285500000,2,0,
27929,7929,Žuto brdo,44.6076400000,20.2890500000,2,0,
27930,7930,Žuto brdo,44.6075300000,20.2891100000,2,0,
27931,7931,Servis,44.5688399166,20.4175875712,2,0,
27932,7932,Servis,44.5689207325,20.4179383724,2,0,
27941,7941,Simić - R,44.6264970000,20.4292640000,2,0,
27942,7942,Simić - R,44.6267130000,20.4293400000,2,0,
27949,7949,Spasovina - Prodavnica MZ,44.5546183000,20.4267950000,2,0,
27950,7950,Spasovina - Prodavnica MZ,44.5547283952,20.4270520755,2,0,
27951,7951,Spasovina - Spomenik,44.5513816097,20.4230141948,2,0,
27952,7952,Spasovina - Spomenik,44.5513091860,20.4229930411,2,0,
27953,7953,Spasovina igralište,44.5579893339,20.4315284313,2,0,
27954,7954,Spasovina igralište,44.5581220767,20.4319485423,2,0,
27955,7955,Srednji kraj - Okretnica,44.6009583000,20.4543817000,2,0,
27956,7956,Srednji kraj - Ulaz,44.5943170000,20.4342870000,2,0,
27957,7957,Srednji kraj - Ulaz,44.5942167000,20.4340583000,2,0,
27958,7958,Srednji kraj - Škola,44.6002883000,20.4495300000,2,0,
27959,7959,Srednji kraj - Škola,44.6003917000,20.4495850000,2,0,
27960,7960,Srednji kraj - Šuma,44.5983800000,20.4409483000,2,0,
27961,7961,Srednji kraj - Šuma,44.5983017000,20.4407733000,2,0,
27962,7962,Srednji kraj - Okretnica,44.6009483551,20.4544490860,2,0,
27963,7963,Srednji kraj,44.5914400000,20.4288633000,2,0,
27965,7965,Umčari R AP,44.5740804959,20.7468991895,2,0,
27966,7966,Umčari - Ambulanta,44.5794700275,20.7389965620,2,0,
27967,7967,Crkva Sv.Nikole,44.5991582000,20.4465753000,2,0,
27968,7968,Stara lipovica - Okretnica,44.6139617000,20.4306800000,2,0,
27969,7969,Manastir,44.6166000000,20.4301190000,2,0,
27970,7970,Manastir,44.6162170000,20.4306030000,2,0,
27971,7971,Stara škola,44.6006819782,20.3010243969,2,0,
27972,7972,Stara škola,44.6006083000,20.3010517000,2,0,
27973,7973,Stepanovića kraj,44.5746875000,20.2377260000,2,0,
27974,7974,Stepanovića kraj,44.5746107170,20.2377192313,2,0,
27975,7975,Crkva Sv.Nikole,44.5991600000,20.4471200000,2,0,
27976,7976,Stražarija - Mlekara,44.5940456000,20.4620436000,2,0,
27977,7977,Stražarija - Mlekara,44.5940467000,20.4619167000,2,0,
27978,7978,Stražarija brdo,44.5967500000,20.4639983000,2,0,
27979,7979,Stražarija brdo,44.5967212496,20.4640918460,2,0,
27980,7980,Stražarija,44.5902647584,20.4524698312,2,0,
27981,7981,Stražarija,44.5903350000,20.4524517000,2,0,
27982,7982,Taborište,44.6010167000,20.4306811000,2,0,
27983,7983,Taborište,44.6011067000,20.4306233000,2,0,
27984,7984,Taraiš - Obrenovačka,44.6084511857,20.3019699215,2,0,
27985,7985,Taraiš - Obrenovačka,44.6085626739,20.3022311338,2,0,
27986,7986,Taraiš - Ulaz,44.6054385423,20.2945841227,2,0,
27987,7987,Šiljakovac R,44.5472040000,20.3478720000,2,0,
27988,7988,Granice (vinogradi),44.4635590000,20.7298490000,2,0,
27989,7989,Taraiš - Brdo,44.6136229295,20.3101721865,2,0,
27990,7990,Taraiš - Brdo,44.6134967000,20.3100200000,2,0,
27991,7991,Taraiš - Okretnica,44.6182423810,20.3139625564,2,0,
27992,7992,Taraiš - Prodavnica,44.6103733338,20.3062667110,2,0,
27993,7993,Taraiš - Prodavnica,44.6103950000,20.3059083000,2,0,
27994,7994,Taraiš - Ulaz,44.6054227799,20.2956900724,2,0,
27995,7995,Taraiš - Ulaz,44.6050200000,20.2952960000,2,0,
27996,7996,Čedomira Nikolića - Gajina,44.5488480000,20.3437770000,2,0,
27997,7997,Čedomira Nikolića - Gajina,44.5490420000,20.3436060000,2,0,
27999,7999,Tresije - Raskrsnica,44.4847267000,20.5602233000,2,0,
28000,8000,Šiljakovac (trafo),44.5797030000,20.3285360000,2,0,
28001,8001,Put za Bistricu,44.3976670219,20.3535375437,2,0,
28002,8002,Turske njive,44.5591657224,20.4179423380,2,0,
28003,8003,Turske njive,44.5594463889,20.4182787663,2,0,
28004,8004,Čedomira Jakovljevića,44.5523970000,20.3403060000,2,0,
28005,8005,Čedomira Jakovljevića,44.5521440000,20.3405160000,2,0,
28006,8006,Šiljakovac - Selo,44.5740475680,20.3275331313,2,0,
28007,8007,Šiljakovac - Selo,44.5740220248,20.3276687360,2,0,
28008,8008,Šiljakovac R,44.5814950565,20.3304380319,2,0,
28009,8009,Šiljakovac R,44.5815754439,20.3306245007,2,0,
28010,8010,Šiljakovac - R,44.5470867244,20.3481843033,2,0,
28011,8011,Šiljakovac - R,44.5471115323,20.3479457205,2,0,
28012,8012,Šiljakovac R,44.5817571909,20.3298921399,2,0,
28013,8013,Šiljakovac R,44.5817811470,20.3306889150,2,0,
28014,8014,Žuberak,44.5691570000,20.3295130000,2,0,
28015,8015,Žuberak,44.5693012314,20.3294339369,2,0,
28016,8016,Šiljakovac-Centar,44.5654049304,20.3329462971,2,0,
28017,8017,Šiljakovac-Centar,44.5654800000,20.3330401000,2,0,
28018,8018,Šumadinka,44.5936757065,20.3493140441,2,0,
28019,8019,Šumadinka,44.5941519788,20.3500572756,2,0,
28020,8020,Bogoljuba Jovanovića,44.5624690000,20.3355270000,2,0,
28021,8021,Bogoljuba Jovanovića,44.5623960000,20.3357720000,2,0,
28022,8022,Ribnjak,44.5557090000,20.3394890000,2,0,
28023,8023,Ambulanta,44.4768261723,20.8021751313,2,0,
28024,8024,Put za Bistricu,44.3977795402,20.3535584211,2,0,
28025,8025,Trstenička,44.5596120000,20.3365140000,2,0,
28026,8026,Trstenička,44.5594520000,20.3365220000,2,0,
28027,8027,Stevančević kraj,44.6113933000,20.4443033000,2,0,
28028,8028,Ribnjak,44.5558550000,20.3390170000,2,0,
28029,8029,202,44.4054552610,20.7281648234,2,0,
28030,8030,202,44.4057825515,20.7272880466,2,0,
28031,8031,Amerić - Škola,44.4704370000,20.6385020000,2,0,
28032,8032,Amerić - Škola,44.4706500000,20.6389000000,2,0,
28033,8033,Amerić 1,44.4688975000,20.6330714000,2,0,
28034,8034,Amerić 1,44.4695316000,20.6322410000,2,0,
28035,8035,Amerić 2 - Okretnica,44.4808283000,20.6204233000,2,0,
28037,8037,Anđelkovići,44.3684407781,20.7221880669,2,0,
28038,8038,Anđelkovići,44.3684996499,20.7222639123,2,0,
28039,8039,Arilje,44.4820743402,20.7929933466,2,0,
28040,8040,Arilje,44.4821917000,20.7929483000,2,0,
28041,8041,Auto otpad,44.4347117000,20.6795500000,2,0,
28042,8042,Auto otpad,44.4348667000,20.6792383000,2,0,
28043,8043,Razvitak,44.4517250000,20.6857800000,2,0,
28044,8044,Razvitak,44.4517825000,20.6860129000,2,0,
28045,8045,Bakčine,44.4818020000,20.6451820000,2,0,
28046,8046,Bakčine,44.4816083000,20.6426450000,2,0,
28047,8047,Banova kuća,44.3613167000,20.6624783000,2,0,
28049,8049,Baraka,44.4663130861,20.7629570552,2,0,
28050,8050,Baraka,44.4663072277,20.7627694024,2,0,
28052,8052,Bataševo,44.4268053337,20.7079437552,2,0,
28053,8053,Bataševo,44.4268723562,20.7078086442,2,0,
28056,8056,Šumadijska,44.4482033000,20.6892833000,2,0,
28057,8057,Šumadijska,44.4481267000,20.6892667000,2,0,
28059,8059,Debeljak,44.4307112863,20.7260934454,2,0,
28060,8060,Belovača - Okretnica,44.3736759584,20.6395151730,2,0,
28061,8061,Belovača - Okretnica,44.3736262000,20.6394508000,2,0,
28062,8062,Beluće - Okretnica,44.5051224388,20.7797062153,2,0,
28064,8064,Beljaković - Okretnica,44.3609372708,20.7183611043,2,0,
28066,8066,Beljevac - Okretnica,44.3561117000,20.6624600000,2,0,
28067,8067,Beljevac raskrsnica,44.3581583000,20.6776483000,2,0,
28068,8068,Beljevac raskrsnica,44.3581267000,20.6777117000,2,0,
28072,8072,Borići,44.4663533000,20.5834483000,2,0,
28073,8073,Borići,44.4662866147,20.5833730428,2,0,
28074,8074,Parcani - Brđani - Okretnica,44.5651552000,20.5132852000,2,0,
28075,8075,Blažići,44.4126097840,20.6911682129,2,0,
28076,8076,Brđani,44.3833053555,20.7311302736,2,0,
28077,8077,Brđani,44.3828738339,20.7312728019,2,0,
28079,8079,Brestovi,44.5092559617,20.7262814258,2,0,
28080,8080,Brestovi,44.5093604962,20.7262936442,2,0,
28081,8081,Valjak,44.4861180000,20.7716790000,2,0,
28082,8082,Trstena (Livadarska),44.4436800000,20.6472500000,2,0,
28086,8086,Valjak,44.4859867349,20.7724428074,2,0,
28087,8087,Valjak,44.4859213084,20.7714976123,2,0,
28089,8089,Varovnice,44.5162825892,20.7054053350,2,0,
28090,8090,Varovnice,44.5161543103,20.7052901515,2,0,
28093,8093,Velika ivanča - Metaljka,44.4303130000,20.5689240000,2,0,
28094,8094,Velika ivanča - Reka,44.4255717000,20.5789267000,2,0,
28095,8095,Velika ivanča - Reka,44.4255591064,20.5790749798,2,0,
28096,8096,Velika krsna - Dom,44.4778842957,20.8009623043,2,0,
28097,8097,Velika krsna - Dom,44.4780867000,20.8009600000,2,0,
28098,8098,Velika krsna - Dud,44.4782274036,20.8125887245,2,0,
28099,8099,Velika krsna - Dud,44.4780704717,20.8128435344,2,0,
28100,8100,Velika krsna - Most,44.4789220347,20.8085771865,2,0,
28101,8101,Velika krsna - Most,44.4790867000,20.8088167000,2,0,
28102,8102,Arilje,44.4819840000,20.7923980000,2,0,
28103,8103,Put Ćosića,44.4779500000,20.7875200000,2,0,
28104,8104,Veterinarska,44.4243871425,20.6825876969,2,0,
28105,8105,Vukove njive,44.6060129531,20.2763726190,2,0,
28106,8106,Veterinarska,44.4247830535,20.6830995245,2,0,
28107,8107,Majora Tepića,44.4723800000,20.7945000000,2,0,
28108,8108,Jovana Dučića,44.4698400000,20.7968000000,2,0,
28110,8110,Granice,44.4634593429,20.8025660933,2,0,
28112,8112,Dolina šešira,44.4681900000,20.8081700000,2,0,
28113,8113,Put Davidovića,44.4728600000,20.8057600000,2,0,
28114,8114,Voćnjak,44.3765721670,20.6814327307,2,0,
28115,8115,Voćnjak,44.3764638442,20.6808309969,2,0,
28116,8116,Vrbica (vojska),44.4568450000,20.6511733000,2,0,
28118,8118,Vrbica,44.4690367000,20.6543983000,2,0,
28119,8119,Vrbica,44.4680300000,20.6475767000,2,0,
28120,8120,Garaža,44.4038012632,20.7381845190,2,0,
28121,8121,Garaža,44.4039361607,20.7380035331,2,0,
28122,8122,Gvozdenova kapija,44.3737317000,20.6434100000,2,0,
28123,8123,Gvozdenova kapija,44.3737154036,20.6437783000,2,0,
28124,8124,Glišići - Okretnica,44.3514971795,20.7669490933,2,0,
28125,8125,Glišići - Okretnica,44.3515310000,20.7668350000,2,0,
28126,8126,Glišići,44.5128853616,20.7331414668,2,0,
28127,8127,Glišići,44.5128401481,20.7328900441,2,0,
28128,8128,Grabovac,44.3802322067,20.6740960466,2,0,
28129,8129,Grab,44.4480156994,20.6039215687,2,0,
28130,8130,Grab,44.4478588296,20.6041586644,2,0,
28133,8133,Granice - Okretnica,44.4546083000,20.7195880000,2,0,
28134,8134,Granice - Okretnica,44.4544133000,20.7195933000,2,0,
28135,8135,Granice - Škola,44.4475017416,20.7161873399,2,0,
28136,8136,Granice - Škola,44.4474850014,20.7161237286,2,0,
28137,8137,Grobić,44.4708633000,20.6440033000,2,0,
28138,8138,Grabovac,44.3803351649,20.6741568026,2,0,
28139,8139,Grobić,44.4709580000,20.6436260000,2,0,
28140,8140,Groblje,44.4224896969,20.5780722159,2,0,
28141,8141,Groblje,44.4224106375,20.5781591307,2,0,
28144,8144,Kraljevića Marka,44.6441964310,20.2934070903,2,0,
28145,8145,Dedinje-Pumpa,44.4376600000,20.6999883000,2,0,
28146,8146,Dedinje-Pumpa,44.4376050000,20.7001767000,2,0,
28147,8147,Kožara,44.4688580000,20.7094900000,2,0,
28149,8149,Donja dubona - Okretnica,44.5178652084,20.7246858733,2,0,
28150,8150,Donja dubona - Okretnica,44.5179257536,20.7247192801,2,0,
28151,8151,Donja dubona - Prodavnica,44.5222683000,20.7287933000,2,0,
28152,8152,Donja dubona - Prodavnica,44.5221930000,20.7287056000,2,0,
28153,8153,Mlekara,44.4513400000,20.7182700000,2,0,
28154,8154,Mlekara,44.4510900000,20.7181300000,2,0,
28155,8155,Dubona - Dom,44.5251571707,20.7415097865,2,0,
28156,8156,Dubona - Dom,44.5247094384,20.7417730258,2,0,
28157,8157,Đeram,44.4570800000,20.6813717000,2,0,
28158,8158,Dubona - Izlaz,44.5320183685,20.7466628049,2,0,
28159,8159,Dubona - Dom,44.5250539798,20.7413571425,2,0,
28160,8160,Đeram,44.4569550000,20.6812933000,2,0,
28162,8162,Đermine,44.4474862779,20.7461204663,2,0,
28163,8163,Đermine,44.4475958519,20.7460855976,2,0,
28168,8168,Ekonomija,44.4399000232,20.6125714110,2,0,
28169,8169,Ekonomija,44.4397214891,20.6126883178,2,0,
28170,8170,Kozarica,44.3871900000,20.6689360000,2,0,
28173,8173,Živinarnik,44.3774980310,20.6895323178,2,0,
28174,8174,Živinarnik,44.3781391610,20.6985628043,2,0,
28175,8175,Žojina kapija,44.4803760000,20.6327900000,2,0,
28176,8176,Žojina kapija,44.4800000000,20.6333230000,2,0,
28180,8180,Žujovići - Okretnica,44.4698187000,20.6899831000,2,0,
28181,8181,Zabran,44.4208000912,20.6517309767,2,0,
28182,8182,Zabran,44.4207472393,20.6517874884,2,0,
28183,8183,Zadruga,44.4538260752,20.7018822669,2,0,
28184,8184,Zadruga,44.4541067459,20.7022744024,2,0,
28185,8185,Zapis,44.4110083000,20.5792100000,2,0,
28186,8186,Zapis,44.4123600000,20.5782767000,2,0,
28187,8187,Zvonara,44.4583080000,20.7004560000,2,0,
28188,8188,Kovačevac (Čot),44.4456630000,20.7578080000,2,0,
28189,8189,Zvonara,44.4581600265,20.6998490933,2,0,
28190,8190,Živanovića sokak,44.4472360000,20.7503250000,2,0,
28191,8191,Živanovića sokak,44.4472888334,20.7503096883,2,0,
28192,8192,Ivanča - Livade,44.4087250000,20.5738967000,2,0,
28193,8193,Ivanča - Livade,44.4084490196,20.5736783933,2,0,
28194,8194,Ivkovići,44.5026867000,20.6769500000,2,0,
28195,8195,Ivkovići,44.5026433000,20.6769083000,2,0,
28196,8196,Igralište,44.4178345254,20.5802176914,2,0,
28197,8197,Igralište,44.4178417000,20.5802900000,2,0,
28198,8198,Ilići,44.4375277695,20.6197531834,2,0,
28199,8199,Torovi,44.4468020000,20.7548630000,2,0,
28200,8200,Torovi,44.4469142776,20.7544472809,2,0,
28201,8201,Ilići,44.4374183000,20.6202417000,2,0,
28202,8202,Jablanica,44.4211206740,20.6418979153,2,0,
28203,8203,Jagnjilo - Dom,44.3753452940,20.7261888773,2,0,
28204,8204,Jagnjilo - Dom,44.3754333475,20.7260829301,2,0,
28205,8205,Ekonomija - Vlaška,44.4914000000,20.6785967000,2,0,
28206,8206,Jagnjilo - Robna kuća,44.3752082000,20.7297866000,2,0,
28207,8207,Jagnjilo - Robna kuća,44.3754395000,20.7296130000,2,0,
28208,8208,Brdo - Stara okretnica,44.6549229079,20.5958183000,1,0,
28209,8209,Brdo - Stara okretnica,44.6547816000,20.5959200000,1,0,
28210,8210,Ilići - Vlaška,44.4932750000,20.6699700000,2,0,
28211,8211,Jagnjilo - Škola,44.3747482358,20.7220730411,2,0,
28212,8212,Jagnjilo - Škola,44.3748115031,20.7223970166,2,0,
28213,8213,Jankovića kapija,44.4237000000,20.5874417000,2,0,
28214,8214,Jankovića kapija,44.4235652801,20.5876922884,2,0,
28215,8215,Jankovići put,44.4103792519,20.7189885570,2,0,
28216,8216,Jankovići put,44.4105609641,20.7188777988,2,0,
28218,8218,Koraćica - Zadruga,44.4444631513,20.6069628043,2,0,
28219,8219,Barzilovica - III,44.3008846000,20.2858716000,2,0,
28220,8220,Barzilovica - III,44.3008308177,20.2858929098,2,0,
28221,8221,Janoševića put,44.4585983000,20.6535217000,2,0,
28222,8222,Janoševića put,44.4586704066,20.6534413761,2,0,
28223,8223,Lug,44.4601890000,20.6553900000,2,0,
28224,8224,Lug,44.4601500000,20.6554320000,2,0,
28225,8225,Jaruga,44.4442550000,20.7117833000,2,0,
28226,8226,Jaruga,44.4442937175,20.7117358888,2,0,
28227,8227,Jezero,44.3912412819,20.6608258465,2,0,
28228,8228,Jezero,44.3911710000,20.6608083000,2,0,
28229,8229,Jendek,44.4231778000,20.5739403000,2,0,
28230,8230,Jendek,44.4231586978,20.5738655008,2,0,
28231,8231,Jovanovići,44.4261992492,20.7361788920,2,0,
28232,8232,Jovanovići,44.4260567000,20.7360250000,2,0,
28233,8233,Kamenica,44.4316452219,20.6532651221,2,0,
28234,8234,Kamenica,44.4312368006,20.6558592043,2,0,
28235,8235,Karaula,44.4150241632,20.6793531815,2,0,
28236,8236,Karaula,44.4157076820,20.6797504941,2,0,
28237,8237,Karaula,44.4160000000,20.6799533000,2,0,
28239,8239,Ekonomija - Vlaška,44.4914002881,20.6785078655,2,0,
28240,8240,Jablanica,44.4210479514,20.6419804663,2,0,
28241,8241,Velika Ivanča - Strugara,44.4004990000,20.5659059000,2,0,
28242,8242,Velika Ivanča - Strugara,44.4004584749,20.5657931871,2,0,
28245,8245,Vladimira Ćorovića,44.4451617000,20.6898417000,2,0,
28246,8246,Vladimira Ćorovića,44.4452090000,20.6900420000,2,0,
28247,8247,Jagnjilo - Dom,44.3751308390,20.7258163877,2,0,
28249,8249,Klenac,44.3759369354,20.6755305860,2,0,
28250,8250,Klenac,44.3759643163,20.6756989754,2,0,
28251,8251,Kovačevac - Dom,44.4368273026,20.7402009392,2,0,
28252,8252,Kovačevac - Dom,44.4371421606,20.7402656031,2,0,
28253,8253,Marići,44.4541000000,20.7417290000,2,0,
28254,8254,Kovačevac (Marići),44.4543443000,20.7415981000,2,0,
28255,8255,Kovačevac Ž.S.,44.4010730837,20.7437021049,2,0,
28256,8256,Kovačevac Ž.S.,44.4011181714,20.7437447724,2,0,
28257,8257,Kovač,44.3784515903,20.7298929448,2,0,
28258,8258,Kovač,44.3784927051,20.7299922976,2,0,
28259,8259,Ilići - Vlaška,44.4932500000,20.6698150000,2,0,
28260,8260,Đeram,44.4772833000,20.7165455104,2,0,
28261,8261,Đeram,44.4770217464,20.7166846411,2,0,
28262,8262,Škola,44.4579326335,20.7021012665,2,0,
28263,8263,Škola,44.4579350000,20.7021833000,2,0,
28264,8264,Pijaca,44.4403761000,20.6946569000,2,0,
28265,8265,Trstenska,44.4450570000,20.6580920000,2,0,
28268,8268,Kozarica,44.3876621273,20.6690789215,2,0,
28269,8269,Kozarica,44.3873738269,20.6692419767,2,0,
28270,8270,Koraćica - Zadruga,44.4443950000,20.6068970000,2,0,
28271,8271,Koraćica - Zmajevac,44.4581176578,20.5996534196,2,0,
28272,8272,Koraćica - Zmajevac,44.4582737265,20.5994433294,2,0,
28273,8273,Koraćička banja,44.4301817000,20.6631683000,2,0,
28274,8274,Koraćička banja,44.4301668077,20.6629813356,2,0,
28275,8275,Kosmaj - Zlatar,44.4719250981,20.5773753552,2,0,
28276,8276,Kosmaj - Zlatar,44.4719119756,20.5772140472,2,0,
28277,8277,Košutica,44.4628083000,20.5948550000,2,0,
28278,8278,Košutica,44.4627106564,20.5948689270,2,0,
28280,8280,Kruška,44.3732300000,20.6728233000,2,0,
28281,8281,Kruška,44.3732300000,20.6729022000,2,0,
28284,8284,Mladenovac (centar),44.4402983000,20.6956950000,2,0,
28285,8285,Trstenska,44.4453030000,20.6576090000,2,0,
28286,8286,Lazići,44.5001267000,20.6692567000,2,0,
28287,8287,Lazići,44.4999900000,20.6692367000,2,0,
28288,8288,Lapini,44.4510420000,20.7007410000,2,0,
28289,8289,Lapini,44.4500600000,20.7002817000,2,0,
28293,8293,Limar,44.4817100000,20.6493000000,1,0,
28294,8294,Limar,44.4816200000,20.6429167000,2,0,
28296,8296,Lug,44.3915704250,20.7423923325,2,0,
28297,8297,Lug,44.3916556744,20.7425238975,2,0,
28298,8298,Lukići,44.4593300000,20.5868533000,2,0,
28299,8299,Lukići,44.4594600000,20.5869783000,2,0,
28300,8300,Majdan,44.4150574302,20.6083631724,2,0,
28301,8301,Majdan,44.4151200000,20.6083317000,2,0,
28302,8302,Makovica,44.4339767192,20.6933905924,2,0,
28303,8303,Makovica,44.4340517000,20.6934650000,2,0,
28307,8307,Mali prolaz,44.4162886600,20.6892654527,2,0,
28310,8310,Markovac - Škola,44.3726200000,20.6491257000,2,0,
28311,8311,Markovac - Škola,44.3723890000,20.6488707000,2,0,
28312,8312,Maroševac,44.3533560000,20.7561650000,2,0,
28313,8313,Maroševac,44.3535810000,20.7563300000,2,0,
28314,8314,Maroševac,44.3536314252,20.7561664577,2,0,
28315,8315,Macina - Kafana,44.4426058510,20.7410458399,2,0,
28316,8316,Macina - Kafana,44.4426905364,20.7409785221,2,0,
28317,8317,Međulužje - Dom,44.4076867000,20.6875133000,2,0,
28318,8318,Međulužje - Dom,44.4077674325,20.6877974288,2,0,
28319,8319,Međuluški put II,44.4093290062,20.6762084552,2,0,
28320,8320,Međuluški put II,44.4092531860,20.6762752828,2,0,
28321,8321,Međuluški put,44.4188628485,20.6825311227,2,0,
28322,8322,Janikića put,44.3491600000,20.7532100000,2,0,
28323,8323,Janikića put,44.3492800000,20.7538700000,2,0,
28324,8324,Međuluški put,44.4190200000,20.6822033000,2,0,
28325,8325,Joksimovića put,44.3479100000,20.7512900000,2,0,
28326,8326,Rabrovac (škola),44.3585590051,20.7527828356,2,0,
28327,8327,Milenkovići,44.4930583000,20.6632017000,2,0,
28328,8328,Milenkovići,44.4929917000,20.6628310000,2,0,
28329,8329,Rabrovac (škola),44.3589887698,20.7524418423,2,0,
28330,8330,Miločer,44.4032200000,20.6698483000,2,0,
28331,8331,Macina - Kafana,44.4426790000,20.7409010000,2,0,
28332,8332,Miločer,44.4032425147,20.6700042994,2,0,
28334,8334,Miloševići,44.3772356992,20.6834985221,2,0,
28335,8335,Miloševići,44.3772869171,20.6834592712,2,0,
28336,8336,Minel,44.4339584102,20.6918665104,2,0,
28338,8338,Minel,44.4339450000,20.6920717000,2,0,
28339,8339,Paunovići,44.4299940000,20.7378270000,2,0,
28340,8340,Mića,44.3971584645,20.6680863558,2,0,
28341,8341,Mića,44.3965156536,20.6686441691,2,0,
28342,8342,Paljevina,44.4315589380,20.6374451110,2,0,
28343,8343,Mladenovac AS,44.4398390000,20.6924760000,2,0,
28344,8344,Mladenovac AS,44.4398051069,20.6920445245,2,0,
28345,8345,Vlaško polje (centar),44.4744100000,20.6655411000,2,0,
28346,8346,Vlaško polje (centar),44.4742509275,20.6654447669,2,0,
28347,8347,Mrčevica II,44.3736271899,20.7159012043,2,0,
28348,8348,Mrčevica II,44.3735539757,20.7154701405,2,0,
28349,8349,Mrčevica I,44.3864732550,20.7323913613,2,0,
28350,8350,Mrčevica I,44.3865140416,20.7324799853,2,0,
28351,8351,Naselje 25.maj,44.4427995724,20.7004275601,2,0,
28352,8352,Naselje 25.maj,44.4425850000,20.7003250000,2,0,
28355,8355,Straževica (trafo),44.3804030000,20.7088130000,2,0,
28356,8356,Ulica Nikole Pašića,44.4378703000,20.6937167000,2,0,
28357,8357,Ulica Nikole Pašića,44.4378817000,20.6935183000,2,0,
28358,8358,Despota Stefana Lazarevića,44.3914552920,20.6539866123,2,0,
28359,8359,Novići,44.4334700432,20.7321517988,2,0,
28360,8360,Novići,44.4335400000,20.7320650000,2,0,
28361,8361,Obdanište,44.4391927000,20.6998229000,2,0,
28362,8362,Obdanište,44.4393619000,20.7000042000,2,0,
28363,8363,Ovča,44.4833157682,20.7837817110,2,0,
28364,8364,Ovča,44.4833878682,20.7837316908,2,0,
28365,8365,Okretnica gradskog,44.4268833000,20.7123767000,2,0,
28366,8366,Male livade,44.4430690000,20.6612120000,2,0,
28367,8367,Despota Stefana Lazarevića,44.3914256663,20.6545136822,2,0,
28368,8368,Opština,44.4398030969,20.6941052534,2,0,
28369,8369,Ornice,44.4404567000,20.7097650000,2,0,
28370,8370,Ornice,44.4404404262,20.7097777139,2,0,
28371,8371,Pavlovac,44.4531921292,20.6012632331,2,0,
28372,8372,Pavlovac,44.4531583000,20.6011800000,2,0,
28373,8373,Pavlovići,44.4075601416,20.6827336534,2,0,
28375,8375,Paljevina,44.4314787000,20.6374317000,2,0,
28376,8376,Pavlovići,44.4075747552,20.6826471957,2,0,
28377,8377,Blažići,44.4129943000,20.6912830000,2,0,
28378,8378,Svetog Nikole,44.4372140000,20.7333370000,2,0,
28379,8379,Crkva,44.4402060000,20.7371130000,2,0,
28380,8380,Klenička,44.4416160000,20.7392550000,2,0,
28381,8381,Agića sokak,44.4454590000,20.7415800000,2,0,
28382,8382,Jovanova bara,44.4495300000,20.7420600000,2,0,
28383,8383,Vodotoranj,44.4511450000,20.7447460000,2,0,
28384,8384,Đermine,44.4475660000,20.7458920000,2,0,
28385,8385,Nenadovići,44.4189306630,20.7418403583,2,0,
28386,8386,Nenadovići,44.4187840000,20.7420900000,2,0,
28387,8387,Rabrovac - trafo,44.3616228153,20.7511491914,2,0,
28388,8388,Paunovići,44.4306220000,20.7370470000,2,0,
28389,8389,Paunovići,44.4301683000,20.7370283000,2,0,
28390,8390,Petar Drapšin,44.4484191550,20.6867114430,2,0,
28391,8391,Male livade,44.4433640000,20.6609130000,2,0,
28392,8392,Petkaći - Most,44.4384140316,20.6066634327,2,0,
28393,8393,Petkaći - Most,44.4384017000,20.6067450000,2,0,
28394,8394,Petkaći - Okretnica,44.4342080000,20.6022877000,2,0,
28395,8395,Pijaca,44.4212017000,20.5915600000,2,0,
28396,8396,Pijaca,44.4211109164,20.5915758693,2,0,
28397,8397,Plandište,44.4650450000,20.5843217000,2,0,
28398,8398,Plandište,44.4650833000,20.5843883000,2,0,
28399,8399,Prevale,44.4253617000,20.5827883000,2,0,
28400,8400,Prevale,44.4254233000,20.5827650000,2,0,
28401,8401,Progres,44.4299700000,20.6944600000,2,0,
28402,8402,Progres,44.4300024713,20.6944094110,2,0,
28403,8403,Prodavnica,44.4121083000,20.6851383000,2,0,
28405,8405,Pružatovac,44.4155333000,20.6281783000,2,0,
28406,8406,Pružatovac,44.4153954152,20.6282063264,2,0,
28407,8407,Rabrovac - Dom,44.3619622770,20.7564631000,2,0,
28408,8408,Rabrovac - Dom,44.3619810000,20.7561810000,2,0,
28409,8409,Stubline - Jadrani,44.5932566000,20.1447183000,2,0,
28410,8410,Rabrovac - Trafo,44.3615539414,20.7500187877,2,0,
28411,8411,Rabrovac - Trafo,44.3614364942,20.7502465779,2,0,
28412,8412,Jagnjilo - Robna kuća,44.3753353000,20.7293092000,2,0,
28413,8413,Gaj,44.6672651482,20.1938160933,2,0,
28414,8414,Ravni gaj,44.4196919546,20.6715914577,2,0,
28415,8415,Ravni gaj,44.4195472075,20.6718153847,2,0,
28416,8416,Radojevići,44.4595977585,20.7036820938,2,0,
28417,8417,Radojevići,44.4597696501,20.7037675454,2,0,
28418,8418,Radojkovići,44.4827967000,20.6737033000,2,0,
28419,8419,Radojkovići,44.4827430000,20.6736033000,2,0,
28420,8420,Rajkovac - Milenkovići,44.4607550000,20.6823867000,2,0,
28421,8421,Rajkovac - Milenkovići,44.4607464000,20.6824718000,2,0,
28422,8422,Rajkovac,44.4644580000,20.6837420000,2,0,
28423,8423,Rajkovac,44.4644423442,20.6835596822,2,0,
28424,8424,Rajkovačka tabla,44.4531917000,20.6802550000,2,0,
28425,8425,Rajkovačka tabla,44.4529533000,20.6804867000,2,0,
28426,8426,Rajkovački put,44.4530322000,20.6810015000,2,0,
28428,8428,Jankovići put,44.4105790265,20.7194145859,2,0,
28429,8429,Rajkovački put,44.4524556000,20.6810400000,2,0,
28432,8432,Nova škola - Okretnica,44.4216120000,20.7401059988,2,0,
28433,8433,Nova škola - Okretnica,44.4218917000,20.7400917000,2,0,
28434,8434,Ristići,44.4130223783,20.7432965043,2,0,
28435,8435,Ristići,44.4130921000,20.7435266000,2,0,
28436,8436,Dunavska,44.4505200000,20.6932380000,2,0,
28437,8437,Dunavska,44.4505150000,20.6929680000,2,0,
28438,8438,Vuka Karadžića (ulaz),44.4457133000,20.7004633000,2,0,
28439,8439,Vuka Karadžića (ulaz),44.4458600000,20.7003400000,2,0,
28440,8440,Rotor,44.4366833000,20.6716583000,2,0,
28441,8441,Rotor,44.4365717000,20.6717933000,2,0,
28442,8442,Selo Vlaška - Centar,44.4978817000,20.6794450000,2,0,
28443,8443,Selo Vlaška - Centar,44.4976767000,20.6793783000,2,0,
28444,8444,Selters 2,44.4306696843,20.6838836644,2,0,
28445,8445,Selters 2,44.4305829695,20.6839458896,2,0,
28446,8446,Selters,44.4298843578,20.6877811172,2,0,
28447,8447,Selters,44.4299531846,20.6882428080,2,0,
28448,8448,Klisurska,44.4089445036,20.7447799620,2,0,
28449,8449,Klisurska,44.4094571000,20.7450176000,2,0,
28450,8450,Makleš,44.3699889663,20.6559513368,2,0,
28453,8453,Đurđevska,44.4328510000,20.7358700000,2,0,
28454,8454,Đurđevska,44.4325800000,20.7358500000,2,0,
28455,8455,Dragoslava Andrića,44.4373250000,20.6994650000,2,0,
28456,8456,Dragoslava Andrića,44.4375283000,20.6995333000,2,0,
28457,8457,Stevanovići,44.4273202113,20.7387752301,2,0,
28458,8458,Stevanovići,44.4273681494,20.7387717884,2,0,
28459,8459,Stočni pijac,44.4251483000,20.7019750000,2,0,
28460,8460,Stočni pijac,44.4253867000,20.7019750000,2,0,
28461,8461,Straževica,44.3757773816,20.7072203976,2,0,
28462,8462,Straževica,44.3759698891,20.7070579393,2,0,
28463,8463,Strelište,44.4318859677,20.6755991601,2,0,
28464,8464,Strelište,44.4318448791,20.6757593933,2,0,
28465,8465,Straževica,44.3761950000,20.7072900000,2,0,
28466,8466,Strugara,44.4540998756,20.6972015073,2,0,
28467,8467,Strugara,44.4539950000,20.6972683000,2,0,
28468,8468,Stanoja Bugarskog,44.4606444515,20.6711322243,2,0,
28469,8469,Stanoja Bugarskog,44.4613755435,20.6702999663,2,0,
28470,8470,Tabla,44.5029259118,20.7085078767,2,0,
28471,8471,Tabla,44.5028081763,20.7080842073,2,0,
28472,8472,Bogdana Popovića,44.4290380000,20.6990230000,2,0,
28473,8473,Bogdana Popovića,44.4288230000,20.6993760000,2,0,
28474,8474,Tehnička škola,44.4402270000,20.6999780000,2,0,
28475,8475,Tehnička škola,44.4405274274,20.7001251583,2,0,
28476,8476,Tabla,44.5030741312,20.7081662362,2,0,
28477,8477,Transformator,44.3599000000,20.6651700000,2,0,
28478,8478,Transformator,44.3596536998,20.6646835283,2,0,
28479,8479,Zapis stari hrast,44.4584300000,20.7260100000,2,0,
28480,8480,Zapis stari hrast,44.4584900000,20.7260630000,2,0,
28481,8481,Trafo,44.5061517000,20.6729650000,2,0,
28482,8482,Trafo,44.4164100000,20.7302600000,2,0,
28483,8483,Trafo,44.5062300000,20.6731867000,2,0,
28484,8484,Trafo,44.4164590979,20.7302639476,2,0,
28485,8485,Transformator,44.3599312903,20.6648083280,2,0,
28486,8486,Jadrani,44.5931466000,20.1446893000,2,0,
28488,8488,Tržni centar,44.4375150000,20.6942017000,2,0,
28489,8489,Trskova bara,44.4033444869,20.5668448523,2,0,
28490,8490,Trskova bara,44.4033063699,20.5668863264,2,0,
28491,8491,Trstena ,44.4389943000,20.6687469000,2,0,
28492,8492,Trstena ,44.4389650000,20.6688217000,2,0,
28493,8493,Ćirkovići,44.4298866039,20.6464259767,2,0,
28494,8494,Ćirkovići,44.4298354076,20.6472290288,2,0,
28496,8496,Urošević,44.4217998497,20.5763693150,2,0,
28497,8497,Urošević,44.4217660952,20.5763238389,2,0,
28498,8498,Ciglana,44.4662300000,20.6675167000,2,0,
28499,8499,Ciglana,44.4658650000,20.6676583000,2,0,
28500,8500,Crkva,44.4742917000,20.6248900000,2,0,
28501,8501,Crkva,44.4742469403,20.6248140214,2,0,
28502,8502,Crkvenac,44.4324773423,20.6982253994,2,0,
28503,8503,Crkvinački put,44.3915179238,20.6689425656,2,0,
28504,8504,Crkvinački put,44.3915436443,20.6690707062,2,0,
28505,8505,Crkvinački put,44.3914710000,20.6686520000,2,0,
28506,8506,Crkvine,44.3928560000,20.6485580000,2,0,
28508,8508,Crkvine,44.3929360000,20.6484190000,2,0,
28509,8509,Kneza Mihaila Obrenovića,44.4578167000,20.6753467000,2,0,
28510,8510,Šepšin - Zadruga,44.5394150354,20.7064435276,2,0,
28511,8511,Šepšin - Zadruga,44.5396194559,20.7063382147,2,0,
28512,8512,Crkvenac,44.4329448644,20.6982267528,2,0,
28513,8513,Šepšin - Česma - Okretnica,44.5433956658,20.7019832914,2,0,
28514,8514,Šepšin - Česma - Okretnica,44.5433260900,20.7020797067,2,0,
28515,8515,Crkvena,44.4418603199,20.6921517000,2,0,
28516,8516,Crkvena,44.4418248926,20.6920873270,2,0,
28517,8517,Miletići,44.3916900000,20.6410500000,2,0,
28518,8518,Miletići,44.3916700000,20.6412400000,2,0,
28521,8521,Klasovačka,44.3495030000,20.7701450000,2,0,
28522,8522,Klasovačka,44.3497319019,20.7697668601,2,0,
28523,8523,Šume - Okretnica,44.3669952081,20.7704291933,2,0,
28524,8524,Šume,44.5295876604,20.7125077749,2,0,
28525,8525,Šume,44.5263123356,20.7101947521,2,0,
28526,8526,Škola - Međulužje,44.4096250000,20.6888350000,2,0,
28527,8527,Vićovac,44.3916300000,20.6356300000,2,0,
28528,8528,Groblje,44.4353467000,20.6988850000,2,0,
28529,8529,Groblje,44.4355187280,20.6987997871,2,0,
28531,8531,Transformator,44.3597082516,20.6645977928,2,0,
28532,8532,Koraćička banja - Strelište,44.4307467000,20.6712533000,2,0,
28533,8533,Koraćička banja - Strelište,44.4307817000,20.6713550000,2,0,
28534,8534,Kovač - Selters,44.4360483000,20.6746767000,2,0,
28535,8535,Vojska - Selters,44.4326050000,20.6822200000,2,0,
28536,8536,Kovač - Selters,44.4359817000,20.6748083000,2,0,
28537,8537,Vojska - Selters,44.4326227354,20.6821446445,2,0,
28538,8538,Simići (okretnica),44.3470861982,20.7731650933,2,0,
28539,8539,Simići ,44.3707646201,20.6523939767,2,0,
28540,8540,Sopot (spomenik),44.5201730000,20.5744950000,2,0,
28541,8541,Sopot (spomenik),44.5194990000,20.5747140000,2,0,
28542,8542,Raljska - Senajska,44.5623050000,20.6717870000,2,0,
28543,8543,Raljska - Senajska,44.5630402669,20.6722018454,2,0,
28544,8544,Živkovića kraj,44.5342060248,20.4724064724,2,0,
28545,8545,Živkovića kraj,44.5342674967,20.4728073178,2,0,
28546,8546,Žljebara,44.5307339778,20.4699980466,2,0,
28547,8547,Žljebara,44.5299560447,20.4690709914,2,0,
28548,8548,Staro selo,44.5325031266,20.4658586098,2,0,
28549,8549,Staro selo,44.5323879355,20.4656452479,2,0,
28550,8550,Vojska,44.5270394609,20.5928786736,2,0,
28551,8551,Vojska,44.5272311756,20.5938385331,2,0,
28552,8552,Radojevići I,44.4621580000,20.7053990000,2,0,
28553,8553,Radojevići I,44.4622184284,20.7055452012,2,0,
28554,8554,Guberevac - Okretnica,44.5419167153,20.4734841399,2,0,
28555,8555,Guberevac - Raskrsnica,44.5376897000,20.4650617000,2,0,
28556,8556,Guberevac - Raskrsnica,44.5377429399,20.4649673527,2,0,
28559,8559,Dese Marković,44.5442027997,20.5884184019,2,0,
28560,8560,Dese Marković,44.5441353603,20.5885626730,2,0,
28577,8577,Đurinci - Izlaz,44.5159177382,20.6236698926,2,0,
28578,8578,Đurinci - Železnička stanica,44.5235515090,20.6104538718,2,0,
28579,8579,Đurinci - Železnička stanica,44.5232677513,20.6116969228,2,0,
28580,8580,Đurinci,44.5235355365,20.6139739620,2,0,
28581,8581,Đurinci,44.5232454126,20.6140391110,2,0,
28584,8584,Reka,44.5365500000,20.4810383000,2,0,
28585,8585,Reka,44.5366350000,20.4811667000,2,0,
28586,8586,Žuto brdo,44.5360851500,20.5585048890,2,0,
28587,8587,Žuto brdo,44.5360032025,20.5584876035,2,0,
28591,8591,Mala Ivanča I,44.5814963841,20.6124818423,2,0,
28592,8592,Mala Ivanča I,44.5816407053,20.6123453000,2,0,
28599,8599,Ivanča - Okretnica,44.5976048580,20.6071215050,2,0,
28600,8600,Ivanča - Okretnica,44.5977337000,20.6071521000,2,0,
28603,8603,Karinac,44.5367125684,20.5986675509,2,0,
28604,8604,Karinac,44.5367222151,20.5985346650,2,0,
28608,8608,Kekina kafana,44.5603866346,20.5808880963,2,0,
28609,8609,Kućica,44.5350075112,20.4661464632,2,0,
28610,8610,Kućica,44.5348975806,20.4660707730,2,0,
28611,8611,Mihajla Desančića,44.6189400000,20.2544100000,2,0,
28612,8612,Mihajla Desančića,44.6184800000,20.2538700000,2,0,
28613,8613,Trafo - Šumadija,44.6180695735,20.2630099931,2,0,
28614,8614,Trafo - Šumadija,44.6173330000,20.2607920000,2,0,
28615,8615,Čolakovići,44.6187100000,20.2689600000,2,0,
28616,8616,Čolakovići,44.6185700000,20.2694300000,2,0,
28618,8618,Mali Požarevac - Naplatna rampa,44.5612917364,20.6688884264,2,0,
28619,8619,Mali Požarevac - Raskrsnica,44.5597900100,20.6670628533,2,0,
28620,8620,Mali Požarevac - Raskrsnica,44.5594633000,20.6682700000,2,0,
28621,8621,Mali Požarevac - Ulaz,44.5615199338,20.6397017055,2,0,
28622,8622,Mali Požarevac - Ulaz,44.5616164002,20.6396563172,2,0,
28623,8623,Mali Požarevac - Centar,44.5636328550,20.6535118423,2,0,
28624,8624,Mali Požarevac - Centar,44.5636113890,20.6537707288,2,0,
28625,8625,Mali Požarevac I,44.5629085224,20.6498096944,2,0,
28626,8626,Mali Požarevac I,44.5628591469,20.6498901221,2,0,
28627,8627,Mali Požarevac II,44.5626843692,20.6440390380,2,0,
28628,8628,Mali Požarevac II,44.5627733000,20.6440767000,2,0,
28631,8631,Mali Popović - Izlaz,44.5610779010,20.5935116999,2,0,
28632,8632,Mali Popović - Izlaz,44.5611190324,20.5931965798,2,0,
28633,8633,Mali Popović,44.5681983000,20.6051000000,2,0,
28634,8634,Mali Popović,44.5685329503,20.6049904902,2,0,
28635,8635,Vrtić,44.6494800000,20.1884600000,2,0,
28636,8636,Vrtić,44.6498500000,20.1888800000,2,0,
28637,8637,Vidovdanska,44.6464800000,20.1856200000,2,0,
28638,8638,Vidovdanska,44.6464100000,20.1856700000,2,0,
28639,8639,Momčila Kalajdžića Muje,44.6441500000,20.1833000000,2,0,
28640,8640,Momčila Kalajdžića Muje,44.6438700000,20.1832200000,2,0,
28641,8641,Slobodana Tankosića,44.6408800000,20.1814500000,2,0,
28642,8642,Slobodana Tankosića,44.6410700000,20.1815900000,2,0,
28643,8643,Solunskog fronta,44.6374400000,20.1799500000,2,0,
28644,8644,Solunskog fronta,44.6377300000,20.1801400000,2,0,
28645,8645,Matije Gupca,44.6331000000,20.1780700000,2,0,
28646,8646,Matije Gupca,44.6332000000,20.1781600000,2,0,
28647,8647,Žive Borjanovića (izlaz),44.6252400000,20.1747500000,2,0,
28648,8648,Žive Borjanovića (izlaz),44.6254400000,20.1748000000,2,0,
28649,8649,Mali Požarevac - Raskrsnica,44.5600350000,20.6677980000,2,0,
28651,8651,Kupinačka,44.6589100000,20.1992100000,2,0,
28652,8652,Mali Popović R,44.5724670000,20.6132550000,2,0,
28653,8653,Mali Popović R,44.5727836893,20.6139585945,2,0,
28654,8654,Mali Popović R,44.5726040835,20.6136859712,2,0,
28655,8655,Karaula,44.4159395624,20.6794071957,2,0,
28656,8656,Karaula,44.4158536356,20.6794219479,2,0,
28657,8657,Škola,44.6227700000,20.3678500000,2,0,
28658,8658,Škola,44.6224744083,20.3677065595,2,0,
28659,8659,Mila Vukovića,44.6224470000,20.3617650000,2,0,
28660,8660,Mila Vukovića,44.6223966365,20.3618242564,2,0,
28661,8661,Milene Pavlović Barili,44.6243166815,20.3587054810,2,0,
28662,8662,Milene Pavlović Barili,44.6240100000,20.3586700000,2,0,
28663,8663,Vite Radovića (Donji kraj),44.6275500000,20.3557200000,2,0,
28664,8664,Vinogradi,44.5677845075,20.2388738675,2,0,
28665,8665,Vinogradi,44.5678426686,20.2387594110,2,0,
28666,8666,Pekara,44.5782999708,20.6144284871,2,0,
28667,8667,Pekara,44.5783511790,20.6142188724,2,0,
28668,8668,Branislava Nušića,44.6577400000,20.1951200000,2,0,
28669,8669,Branislava Nušića,44.6581900000,20.1952300000,2,0,
28670,8670,Kupinačka,44.6588500000,20.1996500000,2,0,
28671,8671,Vite Radovića (Donji kraj),44.6275244625,20.3556622827,2,0,
28672,8672,Vinski put,44.6097200000,20.2859410000,2,0,
28673,8673,Vinski put,44.6097780000,20.2864170000,2,0,
28674,8674,Braće Mitrović,44.6078026332,20.2823114810,2,0,
28675,8675,Braće Mitrović,44.6076630000,20.2821470000,2,0,
28676,8676,Međuluški put,44.4095385740,20.6760038252,2,0,
28677,8677,Međuluški put,44.4095100000,20.6761427000,2,0,
28678,8678,Izvor - Pruten,44.5381704854,20.4868988055,2,0,
28679,8679,Izvor - Pruten,44.5381342621,20.4869473233,2,0,
28680,8680,Šib,44.6300910000,20.2526870000,2,0,
28681,8681,Šib,44.6300890000,20.2533760000,2,0,
28682,8682,Đurđević šor,44.5960470000,20.2541370000,2,0,
28683,8683,Đurđević šor,44.5962100000,20.2546560000,2,0,
28684,8684,Veverički kraj,44.6000330000,20.2603750000,2,0,
28685,8685,Mislođin (ulaz),44.6456079169,20.2234661048,2,0,
28686,8686,Mislođin (ulaz),44.6460050000,20.2237360000,2,0,
28687,8687,Deonice,44.6051709941,20.2711143583,2,0,
28688,8688,Deonice,44.6051500000,20.2713370000,2,0,
28689,8689,Anište,44.5845183307,20.2415095845,2,0,
28690,8690,Anište,44.5844912691,20.2416014724,2,0,
28691,8691,Senaja ulaz,44.5550033000,20.6722150000,2,0,
28692,8692,Senaja ulaz,44.5551183000,20.6721850000,2,0,
28693,8693,Meljački Taraiš,44.6328326805,20.3449134024,2,0,
28694,8694,Meljački Taraiš,44.6330860000,20.3454900000,2,0,
28695,8695,Zvezda,44.6295900000,20.3304770000,2,0,
28696,8696,Zvezda,44.6297380000,20.3306750000,2,0,
28697,8697,Taraiš,44.6184290000,20.3138840000,2,0,
28698,8698,Taraiš,44.6183346288,20.3138455477,2,0,
28699,8699,Lazića kuće,44.6163530000,20.3070230000,2,0,
28700,8700,Lazića kuće,44.6182800000,20.3136360000,2,0,
28701,8701,Radnička,44.6143100000,20.3005830000,2,0,
28702,8702,Radnička,44.6141880000,20.3003510000,2,0,
28703,8703,Staro selo (Uroševići),44.5152490000,20.5052790000,2,0,
28704,8704,Staro selo (Uroševići),44.5156255189,20.5055102859,2,0,
28705,8705,Staro selo - trafo,44.5047340000,20.4927950000,2,0,
28706,8706,Staro selo - trafo,44.5049090000,20.4930010000,2,0,
28708,8708,Stojnik (Hajdukovački put),44.5172295626,20.4967918368,2,0,
28709,8709,Stojnik (Hajdukovački put),44.5172336779,20.4968589607,2,0,
28710,8710,Stevanovića kraj,44.4944688612,20.4980601110,2,0,
28711,8711,Stevanovića kraj,44.4945525796,20.4981265742,2,0,
28712,8712,Stojnik - Jaruga,44.5213632122,20.5008823619,2,0,
28713,8713,Stojnik - Jaruga,44.5212780294,20.5009379579,2,0,
28714,8714,Stojnik - Okretnica,44.5155612331,20.4930327840,2,0,
28715,8715,Stojnik - Staro selo,44.5001988887,20.4919863492,2,0,
28716,8716,Stojnik - Staro selo,44.5002859798,20.4919914561,2,0,
28718,8718,Jankovići,44.4171388477,20.6032932890,2,0,
28719,8719,Jankovići,44.4170543310,20.6036407086,2,0,
28721,8721,Trnava,44.4996220327,20.6455885467,2,0,
28722,8722,Trnava,44.4995411747,20.6455496411,2,0,
28723,8723,Jezero vis,44.6242033185,20.2484901166,2,0,
28724,8724,Jezero vis,44.6240800000,20.2485500000,2,0,
28725,8725,Omladinskih brigada,44.6323260000,20.2627760000,2,0,
28726,8726,Omladinskih brigada,44.6322590000,20.2628780000,2,0,
28727,8727,Reka Marica,44.5797578802,20.2364847055,2,0,
28728,8728,Reka Marica,44.5797486116,20.2366525251,2,0,
28729,8729,Mislođinski kanal,44.6522068162,20.2436492331,2,0,
28730,8730,Urovci - Aleksandrići - Groblje,44.6592921157,20.1348267000,2,0,
28731,8731,Urovci - Aleksandrići - Groblje,44.6592813597,20.1350132890,2,0,
28732,8732,Urovci - Aleksandrići - Centar,44.6623300000,20.1411333000,2,0,
28733,8733,Urovci - Aleksandrići - Centar,44.6624142683,20.1415010988,2,0,
28734,8734,Urovci - Aleksandrići,44.6651409770,20.1466197466,2,0,
28735,8735,Urovci - Aleksandrići,44.6651456694,20.1467187755,2,0,
28736,8736,Vukićevica - Arsenovića brdo,44.5583550000,20.0132183000,2,0,
28737,8737,Vukićevica - Arsenovića brdo,44.5582408883,20.0134213356,2,0,
28738,8738,Zabrežje - Asfaltna baza,44.6752726537,20.2027770755,2,0,
28739,8739,Zabrežje - Asfaltna baza,44.6753170509,20.2026788920,2,0,
28742,8742,Acina kuća,44.5254133000,20.2338183000,2,0,
28743,8743,Acina kuća,44.5255117000,20.2338133000,2,0,
28744,8744,Baljevac - (Nova okretnica - Ibarska magistrala),44.5679150610,20.3006777036,2,0,
28747,8747,Baljevac (Dom),44.5680533000,20.2688917000,2,0,
28748,8748,Baljevac (Dom),44.5681417519,20.2688043877,2,0,
28749,8749,Baljevac (Živanovići),44.5651220189,20.2906288565,2,0,
28750,8750,Baljevac (Živanovići),44.5650783000,20.2901600000,2,0,
28752,8752,Baljevac (Osredak),44.5669900464,20.2502689884,2,0,
28753,8753,Baljevac (Osredak),44.5670383000,20.2502567000,2,0,
28754,8754,Baljevac (Potok),44.5665700000,20.2784283000,2,0,
28755,8755,Baljevac (Potok),44.5666483644,20.2783591344,2,0,
28756,8756,Barake,44.6668203504,20.1726392939,2,0,
28757,8757,Barake,44.6666814239,20.1723201110,2,0,
28758,8758,Mislođinski kanal,44.6514410000,20.2439800000,2,0,
28759,8759,Barič - Vinogradi,44.6568250000,20.2706067000,2,0,
28760,8760,Barič - Izlaz,44.6499143112,20.2355276822,2,0,
28761,8761,Barič - Izlaz,44.6499098632,20.2348513411,2,0,
28762,8762,Industrijska zona  Barič,44.6552768837,20.2493736135,2,0,
28763,8763,Industrijska zona Barič,44.6553442760,20.2486636356,2,0,
28764,8764,Barič - Kolonija,44.6510582647,20.2476490288,2,0,
28765,8765,Barič - Kolonija,44.6511283000,20.2476767000,2,0,
28766,8766,Vašarište,44.6531100000,20.2074600000,2,0,
28767,8767,Vašarište,44.6527100000,20.2084600000,2,0,
28768,8768,Barič - Rampa,44.6522668000,20.2600094000,2,0,
28769,8769,Barič - Rampa,44.6527167000,20.2610983000,2,0,
28770,8770,Stara banja,44.6517100000,20.2027900000,2,0,
28771,8771,Stara banja,44.6521790460,20.2034626822,2,0,
28772,8772,Crkva,44.6488600000,20.1974900000,2,0,
28773,8773,Mislođin - Bačevački put,44.6362014113,20.2151419828,2,0,
28774,8774,Mislođin - Bačevački put,44.6363477179,20.2150811749,2,0,
28775,8775,Crkva,44.6489900000,20.1980200000,2,0,
28776,8776,Belo polje - Okretnica,44.6381164115,20.1966150963,2,0,
28778,8778,Bora Kečić,44.6507467000,20.1940998000,2,0,
28779,8779,Bora Kečić,44.6511920000,20.1949980000,2,0,
28780,8780,Zabrežje - Bora Marković,44.6787850000,20.2024967000,2,0,
28781,8781,Zabrežje - Bora Marković,44.6788851285,20.2024175748,2,0,
28782,8782,Boškovići,44.6393667000,20.1923583000,2,0,
28783,8783,Boškovići,44.6401719288,20.1983751221,2,0,
28784,8784,Brgule - Kolubara,44.5174900000,20.2089900000,2,0,
28785,8785,Brgule - Kolubara,44.5175517000,20.2092283000,2,0,
28786,8786,Brgule,44.5176070499,20.2051473147,2,0,
28787,8787,Brgule,44.5179233000,20.2051550000,2,0,
28788,8788,Brgulice,44.5292072817,20.2013775656,2,0,
28789,8789,Brgulice,44.5294050000,20.2014100000,2,0,
28790,8790,Poljane (Škola),44.5246082281,20.2229688865,2,0,
28791,8791,Poljane (Škola),44.5246400000,20.2228167000,2,0,
28792,8792,Poljane (Brđanski put),44.5221867000,20.2211056000,2,0,
28793,8793,Poljane (Brđanski put),44.5220000000,20.2206817000,2,0,
28795,8795,Brović - Mlekara,44.5355667000,20.1383550000,2,0,
28796,8796,Brović - Okretnica,44.5303367000,20.1565017000,2,0,
28798,8798,Brović (Mišića brdo),44.5427733000,20.1289583000,2,0,
28800,8800,Brović (Skretanje 2),44.5358117000,20.1225117000,2,0,
28802,8802,Bugarčići,44.5328900000,20.1317367000,2,0,
28803,8803,Barič (rampa),44.6518034002,20.2605376626,2,0,
28804,8804,Barič (rampa),44.6516140000,20.2608790000,2,0,
28805,8805,Veliko polje - R (Gornji kraj),44.6193483000,20.1705950000,2,0,
28806,8806,Veliko polje - Dalekovod,44.5753191606,20.1745260344,2,0,
28807,8807,Veliko polje - Dalekovod,44.5753826779,20.1745257365,2,0,
28808,8808,Veliko polje - Igralište,44.5951683000,20.1757367000,2,0,
28809,8809,Veliko polje - Igralište,44.5948983000,20.1757650000,2,0,
28810,8810,Veliko polje - Stamenića kraj - Okretnica,44.5720889866,20.1778445982,2,0,
28811,8811,Veliko polje - Stamenića kraj - Okretnica,44.5719817000,20.1779733000,2,0,
28812,8812,Veliko polje - Stanobara,44.5893117000,20.1789950000,2,0,
28813,8813,Veliko polje - Stanobara,44.5893617000,20.1788683000,2,0,
28814,8814,Veliko polje - Stara pruga,44.6090867000,20.1676600000,2,0,
28815,8815,Veliko polje - Stara pruga,44.6092567000,20.1676483000,2,0,
28816,8816,Veliko polje - Stepići srednji kraj,44.6020350000,20.1737433000,2,0,
28817,8817,Veliko polje - Stepići srednji kraj,44.6020017000,20.1738883000,2,0,
28818,8818,Veliko polje - Živinarska farma,44.5833567000,20.1728433000,2,0,
28819,8819,Veliko polje - Živinarska farma,44.5829850000,20.1729417000,2,0,
28820,8820,Veliko polje (Izlaz na srednji kraj-Novi put),44.6044942872,20.1716950228,2,0,
28821,8821,Veliko polje (Trafo-Novi put),44.6116267000,20.1784267000,2,0,
28822,8822,Urovci - Veljanski,44.6670857760,20.1331663356,2,0,
28823,8823,Urovci - Veljanski,44.6670250000,20.1333750000,2,0,
28824,8824,Veprovica,44.5548150000,20.1771933000,2,0,
28825,8825,Veprovica,44.5549883000,20.1771067000,2,0,
28826,8826,Vojska,44.6467496603,20.2634996503,2,0,
28827,8827,Vojska,44.6471297706,20.2634631687,2,0,
28828,8828,Grabovac - Voćnjak,44.6070333505,20.1467676822,2,0,
28829,8829,Grabovac - Voćnjak,44.6070188357,20.1470408105,2,0,
28830,8830,Ušće - Voćnjak,44.6345697916,19.9891521208,2,0,
28831,8831,Zvečka - nova okretnica,44.6241540000,20.1557310000,2,0,
28832,8832,Skela - Vrovi,44.6636250000,20.0760200000,2,0,
28833,8833,Skela - Vrovi,44.6633817000,20.0762417000,2,0,
28834,8834,Orašac R - Vukina kuća,44.5744919705,20.0539766614,2,0,
28835,8835,Orašac R - Vukina kuća,44.5743879277,20.0539515798,2,0,
28836,8836,Vukićevica - Okretnica,44.5444325000,20.0070383000,2,0,
28837,8837,Vukićevica - Okretnica,44.5444287582,20.0071660116,2,0,
28838,8838,Vukićevica - Prodavnica,44.5508916000,20.0185000000,2,0,
28839,8839,Vukićevica - Prodavnica,44.5508405945,20.0185531577,2,0,
28840,8840,Vukićevica (Zorkina okretnica - Arsenovića kraj),44.5629914805,19.9986360303,2,0,
28842,8842,Lisović - Pajšuma česma,44.5459617000,20.4440217000,2,0,
28844,8844,Vukićevica II,44.5594550000,20.0092083000,2,0,
28845,8845,Vukićevica II,44.5608796232,20.0047665004,2,0,
28846,8846,Gaj,44.6671736436,20.1929509969,2,0,
28847,8847,Bazeni,44.6553947362,20.2166914577,2,0,
28848,8848,Bazeni,44.6551809201,20.2164265890,2,0,
28849,8849,Gaj,44.6667967000,20.1935217000,2,0,
28850,8850,Vukina kuća,44.5744945150,20.0538048779,2,0,
28851,8851,Kasarna,44.6682556405,20.1844895484,2,0,
28852,8852,Kasarna,44.6685585311,20.1858899853,2,0,
28853,8853,Vukina kuća,44.5744010000,20.0537717000,2,0,
28854,8854,Gimnazija,44.6525556895,20.1995929154,2,0,
28856,8856,Ušće - Gola bara,44.6435492749,20.0212317110,2,0,
28857,8857,Veliko polje (Okretnica - Gornji kraj),44.6100144000,20.1840469000,2,0,
28858,8858,Veliko polje - Prodavnica,44.6132336822,20.1759882778,2,0,
28859,8859,Grabovac - Brankovići,44.5991325861,20.0884760024,2,0,
28860,8860,Grabovac (Donji kraj),44.6244267000,20.0988750000,2,0,
28863,8863,Stubline - Grčići,44.5811383000,20.1320613613,2,0,
28864,8864,Stubline - Grčići,44.5812117000,20.1321533000,2,0,
28865,8865,Kupalište,44.6580104605,20.2125969387,2,0,
28866,8866,Veliko polje (Izlaz na srednji kraj-Novi put) ,44.6045436962,20.1713454902,2,0,
28867,8867,GO Obrenovac,44.6549864260,20.2002691546,2,0,
28869,8869,Grabovac - Dom Zdravlja,44.6013002414,20.1044765945,2,0,
28870,8870,Grabovac - Dom Zdravlja,44.6011249108,20.1047035368,2,0,
28871,8871,Nemanjina,44.6610951592,20.2031947816,2,0,
28872,8872,Nemanjina,44.6609749681,20.2031652773,2,0,
28873,8873,Naselje Dudovi,44.6587786123,20.2077243325,2,0,
28874,8874,Draževac - Groblje,44.6033651580,20.2231615890,2,0,
28875,8875,Draževac - Groblje,44.6036445484,20.2232325509,2,0,
28876,8876,Naselje Dudovi,44.6586813358,20.2087930638,2,0,
28877,8877,Draževac - Dom,44.5748899643,20.2310028190,2,0,
28878,8878,Draževac - Dom,44.5751038730,20.2311456031,2,0,
28879,8879,Draževac - Lukići,44.5674347250,20.2427680705,2,0,
28880,8880,Draževac - Lukići,44.5674811902,20.2428685423,2,0,
28881,8881,Put za Veliko polje,44.5954151009,20.2235858601,2,0,
28882,8882,Put za Veliko polje,44.5953757299,20.2237079098,2,0,
28883,8883,Rankovići,44.5699161937,20.2344971663,2,0,
28884,8884,Rankovići,44.5707434384,20.2341948656,2,0,
28885,8885,Grabovac (brdo),44.6082065428,20.1062216736,2,0,
28886,8886,Draževac - Todorovići,44.5862758257,20.2243227933,2,0,
28887,8887,Draževac - Todorovići,44.5864728795,20.2243235423,2,0,
28888,8888,Grabovac (brdo),44.6076344191,20.1061244877,2,0,
28889,8889,Dren - Iverić - Okretnica,44.5785184000,19.9947776000,2,0,
28891,8891,Dren - Nova okretnica,44.5897333000,20.0108850000,2,0,
28892,8892,Dren - Nova okretnica,44.5896067000,20.0108433000,2,0,
28893,8893,Dren - Prodavnica,44.5912083000,20.0528633000,2,0,
28894,8894,Dren - Prodavnica,44.5909616000,20.0530450000,2,0,
28895,8895,Dren (groblje),44.5975956776,20.0422784577,2,0,
28896,8896,Dren - Stara okretnica,44.5923267000,20.0179600000,2,0,
28897,8897,Dren - Stara okretnica,44.5923267000,20.0180930000,2,0,
28899,8899,Dren - Škola,44.5952339082,20.0308269282,2,0,
28900,8900,Dren - Škola,44.5952200000,20.0307650000,2,0,
28901,8901,Jasenak (raskrsnica),44.6161234000,20.2339593000,2,0,
28902,8902,Jasenak (raskrsnica),44.6157890000,20.2338840000,2,0,
28904,8904,Dren (groblje),44.5975186372,20.0421870067,2,0,
28905,8905,Dren (reka),44.5976400000,20.0468350000,2,0,
28906,8906,Dren (reka),44.5976334326,20.0467693932,2,0,
28907,8907,Drenski put (raskrsnica),44.5823433000,20.0629227344,2,0,
28908,8908,Drenski put (raskrsnica),44.5823116297,20.0630139286,2,0,
28909,8909,Raskršće,44.5941401199,20.2511129742,2,0,
28910,8910,Duboko,44.6638133074,20.2881793791,2,0,
28911,8911,Duboko,44.6639802230,20.2893637368,2,0,
28914,8914,Stubline - Đođino brdo,44.5731719970,20.1389314521,2,0,
28915,8915,Stubline - Đođino brdo,44.5732300000,20.1387683000,2,0,
28916,8916,Elektrodistribucija - Strela,44.6473723516,20.1975629245,2,0,
28917,8917,Elektrodistribucija - Strela,44.6472002815,20.1977668019,2,0,
28918,8918,Grabovac - Ekonomija,44.5989003819,20.1099229098,2,0,
28919,8919,Grabovac - Ekonomija,44.5987653321,20.1098687607,2,0,
28920,8920,Drenski put (raskrsnica),44.5823433000,20.0626866000,2,0,
28921,8921,Tent a (plato okretnica),44.6707000000,20.1614500000,2,0,
28923,8923,Drenski put (raskrsnica),44.5822780000,20.0626289000,2,0,
28924,8924,Zabrežje - okretnica,44.6817295482,20.2180572154,2,0,
28925,8925,Zabrežje - okretnica,44.6818081000,20.2180276000,2,0,
28926,8926,Zabrežje - pošta,44.6826750000,20.2021467000,2,0,
28927,8927,Zabrežje - pošta,44.6827283000,20.2020967000,2,0,
28929,8929,Raskršće,44.5939400000,20.2509720000,2,0,
28930,8930,Zvečka - dom,44.6393183000,20.1650667000,2,0,
28931,8931,Zvečka - dom,44.6388893341,20.1655388920,2,0,
28932,8932,Groblje,44.5912000000,20.2466400000,2,0,
28933,8933,Groblje,44.5910900000,20.2465800000,2,0,
28934,8934,Zvečka - nova okretnica,44.6239970430,20.1556516909,2,0,
28935,8935,Zvečka - rampa,44.6223490272,20.1732286534,2,0,
28936,8936,Zvečka - rampa,44.6232008912,20.1743476822,2,0,
28937,8937,Grabovac - spomenik ,44.6037257129,20.1300309822,2,0,
28938,8938,Zvečka poljica,44.6390967000,20.1730117000,2,0,
28939,8939,OŠ - J.J. Zmaj,44.6516883000,20.1936383000,2,0,
28940,8940,Jasenak - reka,44.6027167223,20.2539074724,2,0,
28941,8941,Igralište,44.6362362900,20.3036627061,2,0,
28943,8943,Igralište,44.6362757861,20.3034480227,2,0,
28944,8944,Zvečka - Isailovići,44.6506283000,20.1516633000,2,0,
28945,8945,Zvečka - Isailovići,44.6505750000,20.1517400000,2,0,
28946,8946,Stubline - Jadrani,44.5919659000,20.1472878000,2,0,
28947,8947,Stubline - Jadrani,44.5923429000,20.1471014000,2,0,
28949,8949,Zvečka (Čede Todorovića),44.6258180000,20.1383780000,2,0,
28950,8950,Ušće - Jakšići,44.6327633000,19.9999317000,2,0,
28951,8951,Stubline - Janoševa kafana,44.6072271861,20.1530175601,2,0,
28952,8952,Stubline - Janoševa kafana,44.6073557287,20.1531781779,2,0,
28955,8955,Krtinska (Raskrsnica),44.6797760000,20.1433090000,2,0,
28956,8956,Krtinska (Raskrsnica),44.6798890000,20.1436280000,2,0,
28957,8957,Jasenak - Dom,44.6112289491,20.2514103699,2,0,
28958,8958,Jasenak - Dom,44.6111650000,20.2514033000,2,0,
28959,8959,Jasenak - okretnica,44.5998510058,20.2602990730,2,0,
28960,8960,Jasenak - okretnica,44.5999044804,20.2605444951,2,0,
28961,8961,Jasenak (raskrsnica),44.6172440000,20.2348660000,2,0,
28962,8962,Jasenak (raskrsnica),44.6172295526,20.2347434282,2,0,
28963,8963,Jasenak - reka,44.6024520000,20.2541800000,2,0,
28964,8964,Jasenak - reka,44.6026880000,20.2535590000,2,0,
28965,8965,Jasenak (Topolska),44.6192537301,20.2504473123,2,0,
28966,8966,Jasenak (Topolska),44.6192133000,20.2503650000,2,0,
28967,8967,Jasenak - Šumadija,44.6183983000,20.2794483000,2,0,
28969,8969,Jasenak (raskrsnica),44.6163073156,20.2339046589,2,0,
28970,8970,Jasenak (raskrsnica),44.6161178341,20.2337778135,2,0,
28971,8971,Veverički kraj (Novo groblje),44.5891650000,20.2438810000,2,0,
28972,8972,Biblioteka,44.6543306434,20.2036192472,2,0,
28973,8973,Mijatovića kraj,44.5671895146,20.2577337620,2,0,
28974,8974,Zvečka - Jasen,44.6464200000,20.1613117000,2,0,
28975,8975,Zvečka - Jasen,44.6464783000,20.1613400000,2,0,
28976,8976,Mijatovića kraj,44.5672959331,20.2575026135,2,0,
28977,8977,Jeremići,44.5321467000,20.1530217000,2,0,
28978,8978,Jeremići,44.5322950000,20.1527817000,2,0,
28979,8979,Groblje,44.6234105452,20.1451391313,2,0,
28980,8980,Karaula,44.6334867651,20.2790601110,2,0,
28981,8981,Karaula,44.6337557869,20.2783324344,2,0,
28983,8983,Groblje,44.6234500000,20.1447500000,2,0,
28984,8984,Piroman - Keserovići,44.5530750000,20.1451617000,2,0,
28985,8985,Piroman - Keserovići,44.5536650000,20.1460700000,2,0,
28986,8986,Groblje,44.6649242844,20.1980728190,2,0,
28987,8987,Groblje,44.6646485308,20.1985749945,2,0,
28988,8988,Veverički kraj (Novo groblje),44.5890030000,20.2438420000,2,0,
28989,8989,Kružni put 22,44.6421400000,20.1940700000,2,0,
28990,8990,Konatice - Dom,44.5554669115,20.2475464816,2,0,
28991,8991,Konatice - Dom,44.5555300000,20.2476567000,2,0,
28992,8992,Vuka Karadžića,44.6504483761,20.2654819239,2,0,
28993,8993,Konatice - Živanovići,44.5503908256,20.2491102570,2,0,
28994,8994,Konatice - Lecino brdo,44.5605226005,20.2391347429,2,0,
28995,8995,Konatice - Lecino brdo,44.5604767000,20.2393400000,2,0,
28996,8996,Konatice - okretnica,44.5370290320,20.2604137233,2,0,
28997,8997,Konatice - okretnica,44.5376392759,20.2602978080,2,0,
28998,8998,Konatice (Gornji kraj),44.5458441315,20.2530120938,2,0,
28999,8999,Konatice (Gornji kraj),44.5455617623,20.2533381632,2,0,
29000,9000,Cveja Puškara,44.6365024884,20.1822250082,2,0,
29001,9001,Vuka Karadžića,44.6503542756,20.2657500871,2,0,
29002,9002,Krivi vir,44.5305633000,20.1380233000,2,0,
29003,9003,Urovci - Arsenovići,44.6718500000,20.1317667000,2,0,
29004,9004,Urovci - Arsenovići,44.6718750000,20.1317133000,2,0,
29005,9005,Krtinska - krivina,44.6867214674,20.1383298632,2,0,
29006,9006,Krtinska - krivina,44.6866467000,20.1383600000,2,0,
29007,9007,Jasenak - Škola,44.6156770000,20.2508540000,2,0,
29008,9008,Jasenak - Škola,44.6160860000,20.2510180000,2,0,
29009,9009,Krtinska - raskrsnica,44.6799979118,20.1437741307,2,0,
29010,9010,Krtinska - raskrsnica,44.6801204642,20.1434998890,2,0,
29012,9012,Kuća br. 27,44.5401383000,20.1366883000,2,0,
29013,9013,Konatice - Živanovići,44.5504634600,20.2491810031,2,0,
29015,9015,Duboko,44.6636083152,20.2885023221,2,0,
29016,9016,Duboko,44.6635000000,20.2882140000,2,0,
29017,9017,Stubline - Lazarevići,44.5901467563,20.1376929245,2,0,
29018,9018,Stubline - Lazarevići,44.5901483000,20.1379250000,2,0,
29019,9019,Veliko polje - prodavnica,44.6132667000,20.1760417000,2,0,
29020,9020,Grabovac - Lazića prodavnica,44.6007765113,20.0936359767,2,0,
29021,9021,Grabovac - Lazića prodavnica,44.6007250000,20.0936400000,2,0,
29023,9023,Dragorada Dragojevića ,44.6497885867,20.2690193006,2,0,
29024,9024,Lipa,44.4623317394,20.6774732679,2,0,
29026,9026,Liso polje,44.5368067000,20.1958533000,2,0,
29027,9027,Liso polje,44.5369467000,20.1957983000,2,0,
29030,9030,Ljubinić - Dom,44.5397800000,20.0593133000,2,0,
29031,9031,Ljubinić - Dom,44.5402900000,20.0590067000,2,0,
29032,9032,Ljubinić - okretnica,44.5368929157,20.0629804878,2,0,
29033,9033,Ljubinić - okretnica,44.5367986743,20.0627801577,2,0,
29034,9034,Ljubinić - pašnjak,44.5535472961,20.0511187957,2,0,
29035,9035,Ljubinić - pašnjak,44.5535083000,20.0510383000,2,0,
29036,9036,Mala Moštanica - brdo,44.6482367301,20.2944892564,2,0,
29037,9037,Mala Moštanica - brdo,44.6481536863,20.2944584110,2,0,
29038,9038,Mala Moštanica - okretnica,44.6378750000,20.3087767000,2,0,
29039,9039,Mala Moštanica - okretnica,44.6378114115,20.3085155049,2,0,
29040,9040,Mala Moštanica - pošta,44.6467436819,20.3029874399,2,0,
29041,9041,Mala Moštanica - pošta,44.6464901556,20.3031001313,2,0,
29042,9042,Ušće - Marići,44.6302583000,20.0106783000,2,0,
29043,9043,Mislođin - Maričića potok,44.6223458459,20.2255499945,2,0,
29044,9044,Mislođin - Maričića potok,44.6227231360,20.2252426877,2,0,
29045,9045,Skela - Markulići ,44.6722859258,20.0649127024,2,0,
29046,9046,Markovići,44.6789083000,20.0555700000,2,0,
29047,9047,Skela - Markulići ,44.6722100000,20.0648783000,2,0,
29048,9048,Matići,44.5308667000,20.1473500000,2,0,
29049,9049,Matići,44.5309833000,20.1472317000,2,0,
29050,9050,Grobić - kosmajski put,44.4349970250,20.6296987755,2,0,
29051,9051,Grobić - kosmajski put,44.4349335087,20.6296696650,2,0,
29052,9052,Orašac - Mikići,44.5693540324,20.0475098890,2,0,
29053,9053,Dragorada Dragojevića ,44.6496737090,20.2694393877,2,0,
29054,9054,Orašac - Mikići,44.5692980892,20.0475388976,2,0,
29055,9055,Mislođin (vojska),44.6407622150,20.2189542859,2,0,
29056,9056,Mislođin (vojska),44.6406021389,20.2189028773,2,0,
29057,9057,Mislođin - Dom,44.6315958984,20.2193337012,2,0,
29058,9058,Mislođin - Dom,44.6313587641,20.2197913172,2,0,
29059,9059,Beogradska (izlaz),44.6491072097,20.2733592712,2,0,
29060,9060,Mislođin - Jovanovac,44.6147083000,20.2234067000,2,0,
29061,9061,Mislođin - Jovanovac,44.6147894031,20.2238120699,2,0,
29062,9062,Mislođin - r,44.6513275923,20.2250640625,2,0,
29064,9064,Mislođin r,44.6516231270,20.2242826675,2,0,
29067,9067,Grabovac - Mićurina kuća,44.6010550000,20.1168517000,2,0,
29068,9068,Grabovac - Mićurina kuća,44.6010544437,20.1172029006,2,0,
29069,9069,Markovići,44.6793210000,20.0558980000,2,0,
29070,9070,Beogradska (izlaz),44.6489500000,20.2735600000,2,0,
29071,9071,Ratari - Miškovići,44.6511447665,20.1153929627,2,0,
29072,9072,Ratari - Miškovići,44.6513321162,20.1149234202,2,0,
29073,9073,Mladost - okretnica,44.6915183000,20.1242183000,2,0,
29074,9074,Mladost - okretnica,44.6914133000,20.1245900000,2,0,
29075,9075,Mladost - PKB farma,44.6920471135,20.1205208546,2,0,
29076,9076,Mladost - PKB farma,44.6920447302,20.1206019914,2,0,
29077,9077,Zvečka - nadvožnjak,44.6537850000,20.1619617000,2,0,
29078,9078,Vinogradska (ulaz),44.6475849176,20.2790929153,2,0,
29079,9079,Zvečka - nadvožnjak,44.6533999437,20.1610927933,2,0,
29080,9080,Vinogradska (ulaz),44.6472290000,20.2791690000,2,0,
29081,9081,Cara Lazara,44.6481917000,20.1890833000,2,0,
29082,9082,Cara Lazara,44.6480795527,20.1891742509,2,0,
29084,9084,Ratari - Nurča,44.6480817000,20.1243750000,2,0,
29085,9085,Ratari - Nurča,44.6478783000,20.1253100000,2,0,
29086,9086,Obrenovac AS,44.6562263390,20.1980820281,2,0,
29087,9087,Obrenovac AS,44.6550148927,20.1952076552,2,0,
29088,9088,Predajnik,44.6476300000,20.2840800000,2,0,
29089,9089,Ušće - okretnica,44.6280850000,20.0033450000,2,0,
29091,9091,Orašac - šuma,44.5599314446,20.0342519442,2,0,
29092,9092,Orašac - šuma,44.5599336331,20.0343831687,2,0,
29093,9093,Orašac - Vasići,44.5789918839,20.0486427577,2,0,
29094,9094,Orašac - Vasići,44.5789967000,20.0485237000,2,0,
29095,9095,Radničko Naselje (Peš. most),44.6488230000,20.0054030000,2,0,
29096,9096,Predajnik,44.6476361471,20.2844806994,2,0,
29097,9097,Orašac (okretnica),44.5879211796,20.0412341601,2,0,
29100,9100,Orašac r - mlin,44.5631064145,20.0396112448,2,0,
29101,9101,Orašac r - mlin,44.5629638469,20.0395954435,2,0,
29103,9103,Orašac farma - okretnica,44.5809738000,20.0354233000,2,0,
29104,9104,Staro Ušće,44.6363860000,20.0173390000,2,0,
29105,9105,Ušće Marići,44.6302920000,20.0105440000,2,0,
29106,9106,O.Š. Posavski partizani,44.6623460000,20.2038780000,2,0,
29107,9107,O.Š. Posavski partizani,44.6627930000,20.2036750000,2,0,
29108,9108,Otpad guma,44.6764367000,20.1475367000,2,0,
29109,9109,Otpad guma,44.6762766000,20.1475766000,2,0,
29110,9110,Pavići srednji kraj,44.6144300000,20.1632250000,2,0,
29111,9111,Pavići srednji kraj,44.6144750000,20.1632250000,2,0,
29112,9112,Zvečka - Petronijevići,44.6481781912,20.1439070994,2,0,
29113,9113,Zvečka - Petronijevići,44.6482185870,20.1442170607,2,0,
29114,9114,Piroman - centar,44.5481801328,20.1378229706,2,0,
29115,9115,Piroman - Erakovići,44.5415633000,20.1586117000,2,0,
29116,9116,Piroman - Nikolići,44.5423017000,20.1498650000,2,0,
29117,9117,Piroman - Pavlovići,44.5450833000,20.1630517000,2,0,
29118,9118,Piroman (Tomići - Stevanovići),44.5494850000,20.1568333000,2,0,
29119,9119,Zvečka - Piroćanci,44.6545867000,20.1732400000,2,0,
29120,9120,Piroman - Centar,44.5487806352,20.1386384110,2,0,
29121,9121,Moštanička (izlaz),44.6505047349,20.3135374344,2,0,
29122,9122,Zvečka - Piroćanci,44.6545113268,20.1732273039,2,0,
29123,9123,Poljane - Okretnica,44.5226160202,20.2366312312,2,0,
29124,9124,Poljane - Okretnica,44.5225267000,20.2366467000,2,0,
29125,9125,Put za groblje,44.6379271896,20.2711364883,2,0,
29126,9126,Put za groblje,44.6381550795,20.2709840233,2,0,
29127,9127,Put uz brdo,44.6348622836,20.2976748338,2,0,
29128,9128,Put uz brdo,44.6347683000,20.2967317000,2,0,
29129,9129,Zvečka - Radio stanica,44.6463102662,20.1361300000,2,0,
29130,9130,Zvečka - Radio stanica,44.6461600000,20.1373150000,2,0,
29131,9131,Radničko naselje (Peš. most),44.6488467000,20.0055667000,2,0,
29132,9132,Zabrežje - Rajina prodavnica,44.6828234846,20.2102515890,2,0,
29133,9133,Zabrežje - Rajina prodavnica,44.6828816505,20.2101952626,2,0,
29134,9134,Vukićevica - Rakičina kuća,44.5546702743,20.0250876730,2,0,
29135,9135,Vukićevica - Rakičina kuća,44.5545544193,20.0249287846,2,0,
29136,9136,Zabrežje - Rasadnik,44.6685570000,20.2033520000,2,0,
29137,9137,Zabrežje - Rasadnik,44.6682959076,20.2032468687,2,0,
29138,9138,Ratari - Dom,44.6549418147,20.1091071652,2,0,
29139,9139,Ratari - Dom,44.6547742200,20.1092477933,2,0,
29140,9140,Moštanička,44.6469480550,20.2899919534,2,0,
29141,9141,Ratari - Prodavnica - Selo,44.6548867000,20.1027700000,2,0,
29142,9142,Ratari - Škola,44.6564200000,20.1071400000,2,0,
29143,9143,Ratari - Škola,44.6563800000,20.1072100000,2,0,
29144,9144,Moštanička,44.6468290091,20.2901919534,2,0,
29145,9145,Ratari raskrsnica - Okretnica,44.6491383000,20.1054283000,2,0,
29146,9146,Rojkovac,44.6677852901,20.1987435479,2,0,
29147,9147,Rojkovac,44.6677641220,20.1988803405,2,0,
29148,9148,Orašac R mlin,44.5629876389,20.0396221336,2,0,
29149,9149,Mala Moštanica (brdo),44.6481700000,20.2940800000,2,0,
29150,9150,Mala Moštanica (brdo),44.6479893957,20.2940490380,2,0,
29151,9151,Ljubinić (ulaz),44.5448544768,20.0556582890,2,0,
29152,9152,Ljubinić (ulaz),44.5449683000,20.0556966000,2,0,
29153,9153,Dumitorska,44.6492028263,20.2991465890,2,0,
29154,9154,Dumitorska,44.6490899281,20.2992634110,2,0,
29155,9155,Ustanička,44.6483473070,20.3053321853,2,0,
29156,9156,Naselje Sava,44.6710896030,20.1945143878,2,0,
29157,9157,Ustanička,44.6482738527,20.3053345767,2,0,
29158,9158,Skela - Savski cvet,44.6736889672,20.0365719534,2,0,
29159,9159,Skela - Savski cvet,44.6736832451,20.0368053644,2,0,
29160,9160,Senića kraj - Nikolići,44.6106033000,20.2373917000,2,0,
29161,9161,Senića kraj - Nikolići,44.6106091878,20.2374606981,2,0,
29162,9162,Senića kraj - Stevanovići,44.6070917000,20.2421033000,2,0,
29163,9163,Senića kraj - Stevanovići,44.6070932837,20.2421933180,2,0,
29164,9164,Stubline - Simeunovići,44.5783025816,20.1312578135,2,0,
29165,9165,Stubline - Simeunovići,44.5737417000,20.1320683000,2,0,
29166,9166,Skela - Dom,44.6806283000,20.0547383000,2,0,
29167,9167,Skela - Dom,44.6810144842,20.0540964698,2,0,
29168,9168,Skela - Kanal,44.6693406120,20.0258748890,2,0,
29169,9169,Skela - Kanal,44.6691673645,20.0256608509,2,0,
29170,9170,10. oktobra,44.6741469109,20.0504622711,2,0,
29171,9171,Skela - Paležpromet,44.6778883000,20.0456400000,2,0,
29172,9172,Skela - Paležpromet,44.6778897928,20.0457757288,2,0,
29173,9173,Moštanička (izlaz),44.6504400000,20.3135600000,2,0,
29174,9174,Skela (okretnica),44.6701883000,20.0514150000,2,0,
29175,9175,Skela - Spomenik,44.6604921383,20.0858741932,2,0,
29176,9176,Skela - Spomenik,44.6602646149,20.0871326114,2,0,
29177,9177,Drenjanski kraj,44.6490966427,20.3108567055,2,0,
29178,9178,Drenjanski kraj,44.6492323673,20.3112634110,2,0,
29179,9179,Grabovac - Spomenik,44.6036115288,20.1300913411,2,0,
29180,9180,Stubline - Sremčevići,44.6010833000,20.1482250000,2,0,
29181,9181,Stubline - Sremčevići,44.6018900000,20.1487433000,2,0,
29182,9182,Stankovci,44.5738200000,20.1319833000,2,0,
29183,9183,Veliko polje (Trafo-Novi put),44.6115817000,20.1785117000,2,0,
29184,9184,Stara okretnica,44.6260133000,20.1630850000,2,0,
29185,9185,Stara okretnica,44.6259170926,20.1631270552,2,0,
29186,9186,Staro ušće,44.6364663914,20.0173434110,2,0,
29187,9187,Veliko polje (Stepići - Novi put),44.6069917000,20.1743283000,2,0,
29188,9188,Ušće - okretnica,44.6281160000,20.0038150000,2,0,
29189,9189,Vinogradi,44.5185222754,20.2751127933,2,0,
29190,9190,Vinogradi,44.5188367000,20.2743217000,2,0,
29191,9191,Stepojevac,44.5135819497,20.2936781297,2,0,
29192,9192,Stepojevac,44.5136463953,20.2936387991,2,0,
29193,9193,Stočna pijaca,44.6496857180,20.1913741875,2,0,
29194,9194,Put za groblje,44.6379846918,20.2716444024,2,0,
29195,9195,Stubline - Vojna ekonomija,44.5865883000,20.1497433000,2,0,
29196,9196,Stubline - Vojna ekonomija,44.5864625102,20.1498786494,2,0,
29197,9197,Stubline - Ekonomija,44.5791233000,20.1526583000,2,0,
29198,9198,Stubline - Ekonomija,44.5802626284,20.1523346264,2,0,
29199,9199,Stubline - Magacin,44.6142850000,20.1625483000,2,0,
29200,9200,Ušće - Vorbis,44.6638600765,20.0116422976,2,0,
29201,9201,Stubline - Magacin,44.6136075237,20.1616329245,2,0,
29202,9202,Stubline - Radio stanica,44.5623033000,20.1478067000,2,0,
29203,9203,Stubline - Radio stanica,44.5629166000,20.1480066000,2,0,
29204,9204,Stubline - Centar,44.5718600000,20.1509902000,2,0,
29205,9205,Stubline - Centar,44.5717263678,20.1510661098,2,0,
29206,9206,Stubline (Izlaz),44.5716850000,20.1509167000,2,0,
29207,9207,Stubline (Izlaz),44.5717313000,20.1508583000,2,0,
29208,9208,Mladenovac AS,44.4393988014,20.6927042546,2,0,
29209,9209,Mladenovac AS,44.4390385882,20.6927169326,2,0,
29210,9210,Tamnavski most,44.5431683000,20.1899950000,2,0,
29211,9211,Tamnavski most,44.5431467000,20.1900733000,2,0,
29212,9212,Tent A (Izlaz za mladost),44.6662524296,20.1608709822,2,0,
29213,9213,Tent A (Izlaz za mladost),44.6661700000,20.1608400000,2,0,
29214,9214,Timotijevići - Gornji kraj,44.5306258715,20.2689602331,2,0,
29215,9215,Timotijevići - Gornji kraj,44.5316567000,20.2685433000,2,0,
29216,9216,Obrenovac - Topolice,44.6550640447,20.2107795891,2,0,
29218,9218,Trafo stanica 69,44.6429616206,20.1979505920,2,0,
29219,9219,Trafo stanica 69,44.6429816587,20.1980320755,2,0,
29220,9220,Trafo,44.6421150000,20.2658351552,2,0,
29221,9221,Trafo,44.6421150000,20.2659867000,2,0,
29222,9222,Ušće - Jakšići,44.6331879300,19.9995348471,2,0,
29223,9223,Trstenica - Vićentići,44.5600685000,20.0961933000,2,0,
29224,9224,Trstenica - Vrabac,44.5528000000,20.1306667000,2,0,
29225,9225,Trstenica - Vrabac,44.5527533000,20.1306817000,2,0,
29226,9226,Trstenica - Dom,44.5612300000,20.1107983000,2,0,
29227,9227,Trstenica - Dom,44.5610083000,20.1112483000,2,0,
29228,9228,Trstenica - Živanovići,44.5591383000,20.1179967000,2,0,
29229,9229,Trstenica - Živanovići,44.5590533000,20.1180900000,2,0,
29230,9230,Trstenica - Karići,44.5646900000,20.1014967000,2,0,
29231,9231,Trstenica - O desno,44.5662067000,20.0927067000,2,0,
29232,9232,Trstenica - O pravo,44.5609167000,20.0833433000,2,0,
29233,9233,Uljarice,44.6672366828,20.1771592858,2,0,
29234,9234,Uljarice,44.6673146862,20.1788952387,2,0,
29235,9235,Urovci - Raskrsnica,44.6722031446,20.1516769331,2,0,
29236,9236,Urovci - Raskrsnica,44.6719526256,20.1518231699,2,0,
29237,9237,Ušće - Vorbis,44.6634064463,20.0103802423,2,0,
29238,9238,Ušće - Kafana,44.6413967000,19.9888833000,2,0,
29239,9239,Ušće - Tent I,44.6572546849,20.0030909168,2,0,
29240,9240,Ušće - Tent I,44.6595133000,20.0056817000,2,0,
29241,9241,Ušće - Tent II,44.6527840113,19.9988483908,2,0,
29242,9242,Ušće - Voćnjak,44.6346429853,19.9891720411,2,0,
29243,9243,Veliko polje (Stepići - Novi put) ,44.6069717000,20.1743983000,2,0,
29244,9244,Grabovac - Filimonovića put,44.5904646631,20.0723705589,2,0,
29245,9245,Grabovac - Filimonovića put,44.5908071202,20.0726822067,2,0,
29246,9246,Filipovića kraj,44.6443150000,20.1847650000,2,0,
29247,9247,Filipovića kraj,44.6451497335,20.1860181632,2,0,
29248,9248,Vuka Karadžića,44.6573345856,20.2038939067,2,0,
29249,9249,Grobljanska,44.6446130625,20.2803136675,2,0,
29250,9250,Cveja puškara,44.6361667000,20.1823533000,2,0,
29251,9251,Cveja puškara,44.6353140010,20.1822275870,2,0,
29252,9252,Grobljanska,44.6449399457,20.2802625190,2,0,
29253,9253,Crna tačka,44.6531331693,20.1911123744,2,0,
29254,9254,Crna tačka,44.6530773855,20.1906199549,2,0,
29255,9255,Zvečka - Čivija,44.6280066000,20.1785383000,2,0,
29256,9256,Zvečka - Čivija,44.6286744823,20.1791574288,2,0,
29257,9257,Grabovac - Čolić,44.6121025718,20.1043344024,2,0,
29258,9258,Grabovac - Čolić,44.6120200000,20.1042633000,2,0,
29259,9259,Grabovac - Prodavnica,44.6177033000,20.1020067000,2,0,
29260,9260,Grabovac - Prodavnica,44.6172707454,20.1019506325,2,0,
29261,9261,Ušće - Tent II,44.6536550000,19.9994733000,2,0,
29262,9262,Ušće - Kafana,44.6405370000,19.9882620000,2,0,
29263,9263,Grabovac - Ševar,44.5970034020,20.0807725803,2,0,
29264,9264,Grabovac - Ševar,44.5969727416,20.0810371663,2,0,
29265,9265,Stublinčevića kraj - Okretnica,44.5783369765,20.2481482785,2,0,
29266,9266,Skela - Paležpromet,44.6777280000,20.0458450000,2,0,
29267,9267,Rašića kraj - Prodavnica,44.5868688000,20.2816752000,2,0,
29268,9268,Stepojevac,44.5129989159,20.2945661827,2,0,
29269,9269,Skela - Paležpromet,44.6777830000,20.0458230000,2,0,
29270,9270,Trstenica (Kalinčevići),44.5637990000,20.1088980000,2,0,
29271,9271,Stepojevac,44.5143020535,20.2943103264,2,0,
29272,9272,6. vojvođanske brigade,44.6468755137,20.2757594258,2,0,
29273,9273,6. vojvođanske brigade,44.6466460000,20.2757630000,2,0,
29274,9274,Tamnavska - kružni tok,44.4824420000,20.2775080000,2,0,
29275,9275,Tamnavska - kružni tok,44.4823170000,20.2778330000,2,0,
29276,9276,Trstenica (trafo),44.5567600000,20.1243200000,2,0,
29277,9277,Trstenica (trafo),44.5568695000,20.1239464000,2,0,
29278,9278,Poljane 1,44.5271190000,20.2216690000,2,0,
29279,9279,Poljane 1,44.5270660000,20.2215450000,2,0,
29280,9280,Poljane 2,44.5322553842,20.2212451460,2,0,
29281,9281,Poljane 2,44.5322471320,20.2211691632,2,0,
29282,9282,Poljane 3,44.5409927352,20.2207806736,2,0,
29283,9283,Poljane 3,44.5405869559,20.2208035742,2,0,
29284,9284,Poljane 4,44.5462920000,20.2192790000,2,0,
29285,9285,Poljane 4,44.5465960000,20.2190390000,2,0,
29286,9286,Poljane 5,44.5507128671,20.2185298601,2,0,
29287,9287,Poljane 5,44.5508150000,20.2183880000,2,0,
29288,9288,Poljane 6,44.5552123215,20.2163401224,2,0,
29289,9289,Poljane 6,44.5556216794,20.2162494529,2,0,
29290,9290,Poljane 7,44.5592941777,20.2152332859,2,0,
29291,9291,Poljane 7,44.5589686041,20.2154534742,2,0,
29292,9292,Poljane (Donji kraj),44.5651200000,20.2124290000,2,0,
29293,9293,Grobljanska 1,44.6426800000,20.2784600000,2,0,
29294,9294,Grobljanska 1,44.6425300000,20.2781400000,2,0,
29295,9295,Groblje,44.6408975950,20.2738188135,2,0,
29296,9296,Groblje,44.6407642677,20.2741068920,2,0,
29297,9297,Trafo,44.6413800000,20.2661900000,2,0,
29298,9298,Trafo,44.6415600000,20.2662200000,2,0,
29299,9299,Kolubarska - prilaz,44.6383424452,20.2670134110,2,0,
29300,9300,Kolubarska - prilaz,44.6384800000,20.2665900000,2,0,
29301,9301,Grabovac - Dom zdravlja,44.6017770000,20.1049260000,2,0,
29302,9302,Rogožnjačka (Put za Urovce),44.6671100000,20.1313100000,2,0,
29303,9303,Rogožnjačka (Put za Urovce),44.6670700000,20.1314300000,2,0,
29304,9304,Alaska koliba,44.6622188000,20.7350708000,2,0,
29305,9305,Alaska koliba,44.6623383000,20.7349417000,2,0,
29306,9306,TENT A (Izlaz za Mladost),44.6668190000,20.1596040000,2,0,
29307,9307,TENT A (Izlaz za Mladost),44.6668390000,20.1599670000,2,0,
29308,9308,Autokomanda,44.7850748590,20.4658438865,1,0,
29309,9309,Grabovac - Dom zdravlja,44.6014220000,20.1039070000,2,0,
29310,9310,Baljevac,44.5660848376,20.3014085018,2,0,
29311,9311,Baljevac,44.5659023447,20.3015815043,2,0,
29312,9312,Banovo brdo,44.7684368606,20.4135799473,1,0,
29313,9313,Banovo brdo,44.7681500524,20.4135236209,1,0,
29314,9314,Draževac - Stepanovići,44.5674695022,20.2331302479,2,0,
29315,9315,Draževac - Stepanovići,44.5671140327,20.2334403699,2,0,
29316,9316,Vite Radovića (Srednji kraj),44.6303900000,20.3541400000,2,0,
29317,9317,Vite Radovića (Srednji kraj),44.6301422797,20.3543031779,2,0,
29318,9318,Vite Radovića (Gornji kraj),44.6333091285,20.3516100699,2,0,
29319,9319,Vite Radovića (Gornji kraj),44.6330680498,20.3518398834,2,0,
29320,9320,Janka Tešića ,44.6337300000,20.2594800000,2,0,
29321,9321,Janka Tešića ,44.6338200000,20.2592800000,2,0,
29322,9322,Sarajevska,44.6405032814,20.2581898834,2,0,
29323,9323,Sarajevska,44.6400900000,20.2586400000,2,0,
29324,9324,Dalekovod,44.6412300000,20.2548500000,2,0,
29325,9325,Dalekovod,44.6411100000,20.2549700000,2,0,
29326,9326,Brestovik - Vikend naselje,44.6559417000,20.7457883000,2,0,
29327,9327,Brestovik - Vikend naselje,44.6562467000,20.7456067000,2,0,
29328,9328,Brestovik - Ulaz,44.6450966000,20.7630750000,2,0,
29329,9329,Brestovik - Izlaz,44.6451594365,20.7631140700,2,0,
29330,9330,TENT A (most),44.6660103000,20.1636477000,2,0,
29331,9331,TENT A (most),44.6658788000,20.1641288000,2,0,
29332,9332,Brestovik R,44.6476400000,20.7579679000,2,0,
29333,9333,Brestovik R,44.6475399117,20.7579115687,2,0,
29334,9334,Brestovik R ,44.6475017000,20.7584983000,2,0,
29335,9335,Brestovik R ,44.6474750000,20.7585983000,2,0,
29336,9336,Brestovik centar - Okretnica,44.6451567000,20.7670044000,2,0,
29337,9337,Bukovača,44.6218700000,20.7421333000,2,0,
29338,9338,Vrtić,44.5679470000,20.1488290000,2,0,
29339,9339,Bukovača 2,44.6215500000,20.7419800000,2,0,
29340,9340,Bukovača 2,44.6215783000,20.7422617000,2,0,
29341,9341,Gajići,44.5681900000,20.1406670000,2,0,
29342,9342,Carska,44.5684130000,20.1358470000,2,0,
29343,9343,Stublinska,44.5671860000,20.1309900000,2,0,
29344,9344,Igralište,44.5683200000,20.1248950000,2,0,
29345,9345,Petrovići,44.5710400000,20.1181000000,2,0,
29346,9346,Kalinčevići,44.5648300000,20.1145200000,2,0,
29348,9348,Velike dubrave,44.5732210075,20.3075837221,2,0,
29349,9349,Velike dubrave,44.5715977619,20.3054959804,2,0,
29350,9350,Živkovića kraj,44.6689100000,20.1175700000,2,0,
29351,9351,Živkovića kraj,44.6688700000,20.1176900000,2,0,
29352,9352,Velika Moštanica (r),44.6306236808,20.3798607755,1,0,
29353,9353,Velika Moštanica (r),44.6317494327,20.3809732859,1,0,
29354,9354,Baričkih boraca,44.6455200000,20.2544900000,2,0,
29355,9355,Baričkih boraca,44.6454050000,20.2544620000,2,0,
29356,9356,Kvantaška pijaca,44.5551408000,20.6722003000,2,0,
29357,9357,Kvantaška pijaca,44.5551407782,20.6721076669,2,0,
29360,9360,Vlaško polje - Železnička stanica,44.4810284879,20.6607923123,2,0,
29361,9361,Vlaško polje - Železnička stanica,44.4810441808,20.6606504865,2,0,
29362,9362,Matića kraj (rasadnik),44.6663671108,20.1159637469,2,0,
29363,9363,Matića kraj (rasadnik),44.6664203292,20.1160624474,2,0,
29364,9364,Vukove njive,44.6060000011,20.2766096110,2,0,
29365,9365,Vrba,44.5550465241,20.6993495209,2,0,
29366,9366,Vrba,44.5550256880,20.6992751239,2,0,
29371,9371,Jaričište (pruga),44.6630351684,20.5774357491,1,0,
29372,9372,Jaričište (pruga),44.6629133000,20.5772217000,1,0,
29375,9375,Matića kraj,44.6629700000,20.1173900000,2,0,
29376,9376,Matića kraj,44.6631100000,20.1174100000,2,0,
29377,9377,Vrčin - Nadvožnjak,44.6742333000,20.6021233000,1,0,
29378,9378,Vrčin - Centar,44.6634691000,20.5917596000,1,0,
29379,9379,Vrčin - Centar,44.6632859132,20.5918118019,1,0,
29380,9380,Save Kovačevića,44.6675674227,20.5942722012,1,0,
29381,9381,Save Kovačevića,44.6678604386,20.5944544988,1,0,
29382,9382,Stadion,44.6650236471,20.5851174601,1,0,
29383,9383,Senaja (Lug),44.5496580837,20.6691256371,2,0,
29384,9384,Senaja (Lug),44.5496972026,20.6692187766,2,0,
29385,9385,Veliko polje - R (Gornji kraj),44.6194700000,20.1704670000,2,0,
29386,9386,Rudovci,44.3697037768,20.4088183681,2,0,
29388,9388,Vrčin (pijaca),44.6716495330,20.5959564577,1,0,
29389,9389,Vrčin - Ravnice (okretnica),44.6472167000,20.5967550000,1,0,
29390,9390,Vrčin - Ravnice (okretnica),44.6472361567,20.5966122398,1,0,
29391,9391,Male Brgulice,44.6604500000,20.1121300000,2,0,
29392,9392,Male Brgulice,44.6604800000,20.1123700000,2,0,
29395,9395,Grabovac - Brankovići,44.5990582623,20.0885196466,2,0,
29396,9396,Ratari - Čivija,44.6579633000,20.1001817000,2,0,
29397,9397,Ratari - Čivija,44.6578850000,20.1002767000,2,0,
29398,9398,Grablje,44.6579967000,20.5922583000,1,0,
29399,9399,Grablje,44.6582017000,20.5921800000,1,0,
29406,9406,Dražanj - Izlaz,44.5788833000,20.7012833000,2,0,
29407,9407,Dražanj - Izlaz,44.5789483000,20.7010283000,2,0,
29408,9408,Dražanj - Okretnica,44.5846449000,20.6721191000,2,0,
29409,9409,Dražanj - Okretnica,44.5846174000,20.6719492000,2,0,
29410,9410,Pribiš,44.5656988219,20.6898084577,2,0,
29411,9411,Pribiš,44.5656481336,20.6900699767,2,0,
29412,9412,Dražanj - Ulaz,44.5815800000,20.6947400000,2,0,
29413,9413,Dražanj - Ulaz,44.5816000000,20.6946600000,2,0,
29414,9414,Dražanj - Škola,44.5848833000,20.6821033000,2,0,
29415,9415,Dražanj - Škola,44.5848279013,20.6820831834,2,0,
29416,9416,Draževac - Dom - Okretnica,44.5752532000,20.2313276000,2,0,
29418,9418,Draževac - Lazareva kuća,44.5858058730,20.2723851540,2,0,
29419,9419,Draževac - Lazareva kuća,44.5857695828,20.2724669521,2,0,
29420,9420,Draževac - Selo,44.5759730460,20.2588049423,2,0,
29421,9421,Draževac - Selo,44.5758969150,20.2589388350,2,0,
29425,9425,Lipa,44.4623141000,20.6773957000,2,0,
29426,9426,Đurđević sokak,44.6025601737,20.2654141110,2,0,
29427,9427,Đurđević sokak,44.6026565611,20.2658553288,2,0,
29441,9441,Miloša Obrenovića,44.5823770000,20.7463820000,2,0,
29442,9442,Miloša Obrenovića,44.5825113161,20.7469053178,2,0,
29443,9443,Živkovac okretnica ,44.5930083000,20.8159850000,2,0,
29444,9444,Živkovac okretnica ,44.5930400000,20.8159067000,2,0,
29446,9446,Živkovac - Prodavnica,44.5888217000,20.8023767000,2,0,
29447,9447,Živkovac - Prodavnica,44.5888933000,20.8020667000,2,0,
29448,9448,Živkovac - Stara O,44.5901873000,20.8082865000,2,0,
29449,9449,Živkovac - Stara O,44.5903270000,20.8084372000,2,0,
29450,9450,Živkovac - Ulaz,44.5859733000,20.7712683000,2,0,
29451,9451,Živkovac - Ulaz,44.5860550000,20.7716483000,2,0,
29452,9452,Živkovac (Mač. brest),44.5881700000,20.7931423000,2,0,
29453,9453,Živkovac (Mač. brest),44.5881829045,20.7932424399,2,0,
29460,9460,Pudarci - Trafo,44.6124881000,20.7225946000,2,0,
29461,9461,Pudarci - Trafo,44.6123349000,20.7225103000,2,0,
29462,9462,Manastir Rajinovac,44.6260400000,20.7130900000,2,0,
29463,9463,Manastir Rajinovac,44.6254300000,20.7133400000,2,0,
29464,9464,Begaljica (Donji kraj),44.6303861000,20.7061037000,2,0,
29465,9465,Begaljica (Donji kraj),44.6300900000,20.7064000000,2,0,
29466,9466,Janka Tešića (brdo),44.6347850000,20.2653090000,2,0,
29467,9467,Jasenak (groblje),44.6079520000,20.2522150000,2,0,
29469,9469,Jasenak (groblje),44.6081624523,20.2522530380,2,0,
29470,9470,Janka Tešića (brdo),44.6346444520,20.2653787669,2,0,
29471,9471,Nušićeva,44.6478600000,20.2559000000,2,0,
29472,9472,Nušićeva,44.6473320000,20.2554720000,2,0,
29473,9473,Bude Davidovića,44.6504300000,20.2573000000,2,0,
29474,9474,Bude Davidovića,44.6510200000,20.2569600000,2,0,
29476,9476,Ibarski cvet,44.5548055677,20.2990272828,2,0,
29477,9477,Ibarski cvet,44.5563742074,20.2985388571,2,0,
29478,9478,Ivanča - Milijino brdo,44.5944890600,20.6078469797,2,0,
29479,9479,Ivanča - Milijino brdo,44.5946868552,20.6077168067,2,0,
29480,9480,Ivanča - Centar,44.5843481441,20.6089392742,2,0,
29481,9481,Ivanča - Centar,44.5842340004,20.6088517000,2,0,
29482,9482,Ilinski kraj - ulaz,44.6099934768,20.7194452681,2,0,
29483,9483,Ilinski kraj - Okretnica,44.5970083000,20.7128617000,2,0,
29485,9485,Ilinski kraj - Stara okretnica,44.6016401737,20.7135345393,2,0,
29487,9487,Ilinski kraj - Ulaz,44.6100633000,20.7191750000,2,0,
29488,9488,Ilinski kraj - Ulaz,44.6100321000,20.7192800000,2,0,
29489,9489,Institut,44.6422400000,20.7512583000,2,0,
29491,9491,Institut,44.6423200000,20.7513450000,2,0,
29493,9493,Žive Borjanovića ,44.6289800000,20.1763400000,2,0,
29494,9494,Žive Borjanovića,44.6288900000,20.1762600000,2,0,
29495,9495,Vrčin (Avalski put),44.6627258712,20.5438779381,1,0,
29496,9496,Vrčin (Avalski put),44.6629483000,20.5434163503,1,0,
29500,9500,Kamendol - Izlaz - Pesak,44.6108069417,20.7456597669,2,0,
29501,9501,Kamendol - Centar,44.6139683000,20.7555300000,2,0,
29502,9502,Kamendol - Centar,44.6139833000,20.7554017000,2,0,
29503,9503,Kamendol R,44.6149200000,20.7282550000,2,0,
29504,9504,Kamendol R,44.6151550000,20.7284700000,2,0,
29505,9505,Kamendol R,44.6149538012,20.7279615993,2,0,
29506,9506,Kamendol ulaz - Pesak,44.6107383000,20.7454800000,2,0,
29514,9514,13. oktobra,44.6393060000,20.2959510000,2,0,
29515,9515,13. oktobra,44.6394430000,20.2958390000,2,0,
29516,9516,OŠ "14.oktobra",44.6379700000,20.3026000000,2,0,
29523,9523,Šumska uprava,44.6342749000,20.4090105000,2,0,
29524,9524,Lipovica zavod,44.6460231103,20.4162007650,1,0,
29525,9525,Lipovica zavod,44.6462642713,20.4163998901,1,0,
29528,9528,Ljubinić groblje,44.5322303221,20.0740040785,2,0,
29533,9533,Mali Požarevac - Naplatna rampa,44.5614155446,20.6692140663,2,0,
29534,9534,Mali Požarevac - Škola,44.5635146000,20.6571743000,2,0,
29535,9535,Mali Požarevac - Škola,44.5634360751,20.6571432264,2,0,
29536,9536,Put za klisuru,44.4001152000,20.7502927000,2,0,
29537,9537,Put za klisuru,44.4002419000,20.7506311000,2,0,
29540,9540,OŠ "14.oktobra",44.6380800000,20.3024900000,2,0,
29541,9541,Dom Zdravlja - Barajevo,44.5819306040,20.4166986043,2,0,
29542,9542,Ljubinić groblje,44.5322128767,20.0741979264,2,0,
29545,9545,Meljak,44.6249901575,20.3722586736,2,0,
29546,9546,Meljak,44.6249659164,20.3724924204,2,0,
29548,9548,Jaričište (Stepe Stepanovića),44.6608824553,20.5579899761,1,0,
29549,9549,Jaričište (Stepe Stepanovića),44.6608994844,20.5576549944,1,0,
29554,9554,Mirosaljci - Spomenik,44.4380883053,20.4129508024,2,0,
29555,9555,Mirosaljci - Hrast,44.4449715978,20.4174941491,2,0,
29556,9556,Mirosaljci - Hrast,44.4448907426,20.4175372976,2,0,
29559,9559,BAS,44.8057620000,20.4133080000,1,0,
29560,9560,Joševa,44.5309539776,20.0769387755,2,0,
29561,9561,Joševa,44.5309517586,20.0767597669,2,0,
29563,9563,Solinska bara,44.6617356373,20.5509854717,1,0,
29564,9564,Solinska bara,44.6616052402,20.5514211552,1,0,
29565,9565,Babe - Novičići,44.5286566925,20.5408955251,2,0,
29566,9566,Barajevo (izlaz),44.5852784103,20.4170477399,2,0,
29567,9567,Barajevo (ulaz),44.5860623525,20.4164829368,2,0,
29586,9586,Parcani - Okretnica,44.5652282955,20.5134194951,2,0,
29587,9587,Parcani - Okretnica,44.5650955496,20.5132974252,2,0,
29591,9591,Petar Drapšin,44.4481184029,20.6866908896,2,0,
29602,9602,Jaričište (Petra Kočića),44.6624435535,20.5701817993,1,0,
29603,9603,Prodavnica - Donji kraj,44.5837918313,20.7543292000,2,0,
29604,9604,Prodavnica - Donji kraj,44.5838367000,20.7545317000,2,0,
29605,9605,Pudarci - Prodavnica,44.6077917000,20.7248633000,2,0,
29606,9606,Pudarci - Prodavnica,44.6080050668,20.7248856994,2,0,
29607,9607,Pudarci - Trafo,44.6134667000,20.7241467000,2,0,
29608,9608,Pudarci - Trafo,44.6131300000,20.7240033000,2,0,
29609,9609,Pudarci čokanj,44.5997666000,20.7258116000,2,0,
29610,9610,Pudarci čokanj,44.5995417000,20.7256600000,2,0,
29617,9617,Petlovac,44.4827324993,20.5016901369,2,0,
29618,9618,Petlovac,44.4830663886,20.5013881926,2,0,
29621,9621,Ralja - Centar,44.5737683000,20.5580683000,2,0,
29622,9622,Ralja - Centar,44.5736998487,20.5579332890,2,0,
29623,9623,Ravnice (škola),44.6504900000,20.5964883000,1,0,
29624,9624,Ravnice (škola),44.6507512236,20.5964153736,1,0,
29625,9625,Rankovića kraj,44.5782184000,20.2548951000,2,0,
29626,9626,Rankovića kraj,44.5783389081,20.2545108669,2,0,
29629,9629,Rašića kraj - Prodavnica,44.5868121465,20.2817683988,2,0,
29632,9632,Lipovica,44.6492564655,20.4239490957,1,0,
29633,9633,Lipovica,44.6487400000,20.4230300000,1,0,
29634,9634,Rudovci,44.3694171312,20.4090691546,2,0,
29647,9647,Senaja,44.5459210000,20.6674050000,2,0,
29648,9648,Senaja,44.5459210000,20.6675050000,2,0,
29649,9649,Sibnica - Livada,44.4537919067,20.4307796558,2,0,
29650,9650,Sibnica - Livada,44.4536933068,20.4307688976,2,0,
29661,9661,Stadion,44.6649950000,20.5855500000,1,0,
29662,9662,Stanojevac,44.4899505466,20.6573532804,2,0,
29663,9663,Stanojevac,44.4909857739,20.6574533270,2,0,
29664,9664,Branka Ostojića,44.7189781296,20.2232582417,1,0,
29665,9665,Branka Ostojića,44.7189640000,20.2230890000,1,0,
29670,9670,Babe - Bazen,44.5487000000,20.5370090000,2,0,
29671,9671,Stovarište,44.5868033000,20.6107130000,2,0,
29672,9672,Stovarište,44.5868424598,20.6106425656,2,0,
29673,9673,Babe - Bazen,44.5497388229,20.5373340436,2,0,
29674,9674,Babe - Bazen,44.5509300000,20.5381600000,2,0,
29676,9676,Stojnik - Okretnica,44.5156251331,20.4930768202,2,0,
29681,9681,Kraljevića Marka,44.6442313647,20.2934489658,2,0,
29682,9682,Stojnik vinogradi,44.5203888987,20.5073381834,2,0,
29683,9683,Stojnik R - Staro selo,44.5201710000,20.5075890000,2,0,
29684,9684,Stojnik R - Staro selo,44.5203250000,20.5077150000,2,0,
29689,9689,Stublinčevića kraj - okretnica,44.5783290743,20.2484428534,2,0,
29691,9691,Taraiš R,44.5911384175,20.2967613681,2,0,
29692,9692,Taraiš R,44.5912560000,20.2970530000,2,0,
29694,9694,Trajna jaruga - Okretnica,44.6224104972,20.7653259189,2,0,
29695,9695,Trajna jaruga - Okretnica,44.6223683000,20.7651333000,2,0,
29706,9706,Trošarina,44.7602933000,20.4807917000,1,0,
29708,9708,Umka - Rasadnik,44.6706862000,20.2972086000,1,0,
29709,9709,Umka - Rasadnik,44.6707119996,20.2973788166,1,0,
29712,9712,Umčari - Ambulanta,44.5794217000,20.7389533000,2,0,
29713,9713,Umčari - Donji kraj - Škola,44.5846546000,20.7644573000,2,0,
29714,9714,Umčari - Donji kraj - Škola,44.5847109000,20.7645074000,2,0,
29715,9715,Umčari - Crkva,44.5835774034,20.7287409902,2,0,
29716,9716,Umčari - Crkva,44.5835683000,20.7289683000,2,0,
29717,9717,Umčari - Čekerac,44.5931133000,20.7276750000,2,0,
29718,9718,Umčari - Čekerac,44.5927100000,20.7279317000,2,0,
29719,9719,Umčari - Šefkać,44.5785883000,20.7154467000,2,0,
29720,9720,Umčari - Šefkać,44.5785350000,20.7154950000,2,0,
29721,9721,Umčari izlaz,44.5791325517,20.7228646558,2,0,
29722,9722,Umčari izlaz,44.5790867000,20.7229183000,2,0,
29723,9723,Umčari R AP,44.5755696448,20.7446841197,2,0,
29724,9724,Umčari centar odlazna,44.5830968378,20.7361644896,2,0,
29725,9725,Umčari centar odlazna,44.5830609857,20.7360830652,2,0,
29726,9726,Feroplast,44.6624789919,20.5651215798,1,0,
29727,9727,Feroplast,44.6623980295,20.5651093822,1,0,
29734,9734,Šumice,44.7837907040,20.5005673411,1,0,
29735,9735,Šumice,44.7837483000,20.5004567000,1,0,
29736,9736,Barič - Vinogradi,44.6568818128,20.2709471043,2,0,
29741,9741,Taraiš - Okretnica,44.6181737000,20.3138083000,2,0,
29750,9750,Lekići,44.3804450000,20.6610867000,2,0,
29751,9751,Lekići,44.3803207108,20.6610284055,2,0,
29752,9752,Nova,44.4303113000,20.6694833000,2,0,
29753,9753,Nova,44.4302533000,20.6694833000,2,0,
29754,9754,Vreoci - Vaga,44.4536148889,20.2827408157,2,0,
29755,9755,Vreoci - Vaga,44.4528881768,20.2824132276,2,0,
29756,9756,Arnajevo - Mlekara,44.4935349069,20.3576818073,2,0,
29757,9757,Aleksića kuća,44.6091462525,20.2845816933,2,0,
29758,9758,Aleksića kuća,44.6093143000,20.2850086000,2,0,
29759,9759,Amerić Gaj,44.4824000000,20.6284600000,2,0,
29760,9760,Branka Ćopića,44.4568294538,20.6986059903,2,0,
29761,9761,Branka Ćopića,44.4569130147,20.6985495070,2,0,
29762,9762,Škola,44.4188117000,20.5973250000,2,0,
29763,9763,Škola,44.4185675972,20.5981894546,2,0,
29765,9765,Umčari centar dolazna,44.5830834653,20.7360196503,2,0,
29766,9766,Dražanj - Centar,44.5849483000,20.6890650000,2,0,
29767,9767,Dražanj - Centar,44.5848417000,20.6890050000,2,0,
29768,9768,Pudarci - Trafo 2,44.6132617000,20.7238717000,2,0,
29770,9770,Jaričište (Petra Kočića),44.6623842055,20.5701994466,1,0,
29771,9771,Đurinci - Izlaz,44.5162115079,20.6234698700,2,0,
29776,9776,Amerić Gaj,44.4822900000,20.6287900000,2,0,
29780,9780,Kovač,44.5180720500,20.7413765374,2,0,
29781,9781,Kovač,44.5180954000,20.7412910000,2,0,
29782,9782,Kruška,44.5344617000,20.7142250000,2,0,
29783,9783,Kruška,44.5345574968,20.7136948632,2,0,
29784,9784,Amerić - Trafo stanica,44.4830710959,20.6260654616,2,0,
29785,9785,Amerić - Trafo stanica,44.4830232999,20.6260640899,2,0,

